Airport,Latitude,Longitude
0V4,37.141700744599994,-79.01640319820001
19S,37.49140167,-100.8300018
23M,32.0848999023,-88.738899231
2A5,35.911800384521484,-79.61759948730469
2H0,39.410400390599996,-88.8453979492
2K7,37.43539810180664,-95.64610290527344
3AU,37.671600341796875,-97.0779037475586
4A7,33.389099,-84.332397
4U9,44.7356987,-112.720001221
52A,33.6120986938,-83.46040344240001
57C,42.79719924926758,-88.37259674072266
5B2,43.05130005,-73.86119843
6J4,33.92679977416992,-81.79460144042969
6S0,45.806400299072266,-109.98100280761719
7W6,35.562400817871094,-75.9552001953125
87K,37.8567008972168,-93.99909973144531
A39,32.9908056,-111.9185278
A50,38.8744010925293,-104.41000366210938
AAA,-17.35260009765625,-145.50999450683594
AAB,-26.75,141.0
AAC,31.073299408,33.8358001709
AAD,18.05,30.95
AAE,36.822200775146484,7.809169769287109
AAF,29.72750092,-85.02749634
AAG,-22.87,-43.27
AAH,50.823055267333984,6.186388969421387
AAI,-12.92,-46.93
AAJ,3.9,-55.37
AAK,0.1852779984474182,173.63699340820312
AAL,57.0927589138,9.84924316406
AAM,-24.818099975585938,31.544599533081055
AAN,24.261667,55.609167
AAO,9.430225372314453,-64.4707260131836
AAP,29.722499847399998,-95.58830261230001
AAQ,45.002101898193,37.347301483154
AAR,56.2999992371,10.619000434899998
AAS,-3.917,139.3
AAT,43.93,89.5
AAU,-13.45,-172.6
AAV,6.366819858551025,124.7509994506836
AAW,34.2,73.25
AAX,-19.563199996948,-46.960399627686
AAY,16.191699981689453,52.17499923706055
AAZ,14.865599632263184,-91.50199890136719
ABA,53.7400016784668,91.38500213623047
ABB,51.53,-0.3
ABC,38.95,-15.18
ABD,30.371099472,48.2282981873
ABE,40.652099609375,-75.44080352783203
ABF,1.798609972000122,173.04100036621094
ABG,-17.67,143.2
ABH,-23.646099,146.584
ABI,32.4113006592,-99.68190002440001
ABJ,5.261390209197998,-3.9262900352478027
ABK,6.734000205993652,44.25299835205078
ABL,67.106300354,-157.856994629
ABM,-10.9508,142.459
ABN,5.483,-54.05
ABO,5.467,-3.2
ABP,-6.067,141.1
ABQ,35.040199279785156,-106.60900115966797
ABR,45.449100494384766,-98.42179870605469
ABS,22.375999450699997,31.611700058
ABT,20.2961006165,41.6343002319
ABU,-9.333,124.9
ABV,9.006790161132812,7.263169765472412
ABW,-10.17,148.7
ABX,-36.06779861450195,146.95799255371094
ABY,31.535499572753906,-84.19450378417969
ABZ,57.201900482177734,-2.197779893875122
ACA,16.757099151611328,-99.75399780273438
ACB,44.98,-85.2
ACC,5.605189800262451,-0.16678600013256073
ACD,8.51667,-77.3
ACE,28.945499420166016,-13.605199813842773
ACH,47.4850006104,9.560770034789998
ACI,49.70610046386719,-2.2147200107574463
ACJ,8.30148983002,80.42790222170001
ACK,41.25310135,-70.06020355
ACL,4.75,-73.0
ACM,-2.133,-71.78
ACN,29.3,-100.9
ACO,46.15,8.767
ACP,37.347999572753906,46.127899169921875
ACR,-0.5833,-72.4083
ACS,56.2682991027832,90.57080078125
ACT,31.611299514770508,-97.23049926757812
ACU,8.433,-77.97
ACV,40.97809982299805,-124.10900115966797
ACX,25.0863888889,104.959444444
ACY,39.45759963989258,-74.57720184326172
ACZ,31.09830093383789,61.54389953613281
ADA,36.9822006226,35.280399322499996
ADB,38.2924003601,27.156999588
ADC,-7.141,154.7
ADD,8.97789001465,38.799301147499996
ADE,12.829500198364258,45.02880096435547
ADF,37.7313995361,38.4688987732
ADG,41.9,-84.03
ADH,58.60279846191406,125.40899658203125
ADI,-22.462200164794922,14.979999542236328
ADJ,31.972700119018555,35.991600036621094
ADK,51.87799835205078,-176.64599609375
ADL,-34.94499969482422,138.531005859375
ADM,34.30301,-97.0196342
ADN,5.667,-75.88
ADO,-31.02,137.2
ADP,8.301486,80.4279
ADQ,57.75,-152.4940033
ADR,33.45,-79.57
ADS,32.9686012268,-96.8364028931
ADT,34.77,-96.68
ADU,38.3256988525,48.4244003296
ADV,51.22,-1.467
ADW,38.810798645,-76.86699676510001
ADX,56.37289810180664,-2.8684399127960205
ADY,-22.6790008545,29.0555000305
ADZ,12.5836,-81.7112
AEA,0.49083301424980164,173.82899475097656
AEB,23.72,107.0
AED,58.03,-152.9
AEE,10.06,32.95
AEG,1.383,99.45
AEH,13.847000122070312,20.84429931640625
AEI,36.18,-5.45
AEK,-7.367,146.3
AEL,43.68,-93.37
AEO,16.711294,-9.637883
AEP,-34.5592,-58.4156
AER,43.449901580811,39.956600189209
AES,62.5625,6.119699954986572
AET,66.5518035889,-152.621994019
AEU,25.88,55.03
AEX,31.32740020751953,-92.54979705810547
AEY,65.66000366210938,-18.07270050048828
AFA,-34.588299,-68.4039
AFD,-33.58,26.88
AFE,56.9613990784,-133.910003662
AFF,37.43,-105.9
AFI,6.917,-75.07
AFK,7.292,81.64
AFL,-9.8663892746,-56.1049995422
AFN,42.8,-72.0
AFO,42.72,-110.9
AFR,-9.133,148.4
AFS,41.61389923095703,64.23320007324219
AFT,-9.19138888889,160.948611111
AFW,32.9875984192,-97.31880187990001
AFY,38.726398468,30.6011009216
AFZ,36.16809844970703,57.59519958496094
AGA,30.325000762939453,-9.413069725036621
AGB,48.425278,10.931667
AGC,40.354400634765625,-79.9301986694336
AGD,-1.383,133.9
AGE,53.782779693603516,7.913888931274414
AGF,44.17470169067383,0.5905560255050659
AGG,-4.067,144.1
AGH,56.29610061645508,12.847100257873535
AGI,5.76666688919,-56.6333312988
AGJ,26.5925006866,127.240997314
AGK,-6.333,143.8
AGL,-9.333,149.2
AGM,65.61229608469999,-37.6183354855
AGN,57.5,-134.6
AGO,33.23,-93.22
AGP,36.67490005493164,-4.499110221862793
AGQ,38.602001,21.3512001
AGR,27.155799865722656,77.96089935302734
AGS,33.36989974975586,-81.9645004272461
AGT,-25.454516,-54.842682
AGU,21.705601,-102.318001
AGV,9.553375244140625,-69.23786926269531
AGW,-12.15,142.2
AGX,10.823699951171875,72.1760025024414
AGY,-16.35,128.8
AGZ,-29.28179931640625,18.813899993896484
AHA,26.2,127.7
AHB,18.240400314299997,42.65660095210001
AHC,40.27,-120.2
AHD,34.15,-97.15
AHE,-14.428099632263184,-146.2570037841797
AHF,40.3,-99.9
AHH,45.28,-92.37
AHI,-3.333,128.9
AHL,2.483,-59.32
AHM,42.19,-122.7
AHN,33.948594,-83.326347
AHO,40.632099,8.29077
AHQ,41.2412986755,-96.59400177
AHS,15.4722,-84.352203
AHT,51.5,179.0
AHU,35.177101135253906,-3.83951997756958
AHY,-20.02,45.53
AHZ,45.08,6.083
AIA,42.0531997681,-102.804000854
AIB,56.23,-132.4
AIC,7.1,171.2
AID,40.17,-85.68
AIE,-5.133,144.7
AIF,-22.638564,-50.455914
AIG,6.517,23.25
AIH,-7.349,141.3
AII,11.15,42.72
AIK,33.6493988037,-81.68499755859999
AIL,9.233,-78.02
AIM,10.2,170.0
AIN,70.613378,-159.86035
AIO,41.4,-95.02
AIP,7.267,168.8
AIR,-10.250278,-59.383888
AIS,-2.61611008644104,176.80299377441406
AIT,-18.830900192260742,-159.76400756835938
AIU,-19.96780014038086,-158.11900329589844
AIV,33.1,-88.2
AIW,-27.98,17.58
AIY,39.37,-74.45
AIZ,38.0960006714,-92.54949951170002
AJA,41.92359924316406,8.8029203414917
AJF,29.78510093688965,40.099998474121094
AJI,39.654541015625,43.025978088378906
AJJ,19.73,-14.38
AJK,34.09,49.68
AJL,23.840599060099997,92.6196975708
AJN,-12.131667,44.430279
AJO,29.785133,40.100006
AJR,65.59030151367188,19.28190040588379
AJS,26.73,-113.6
AJU,-10.984000206,-37.0703010559
AJY,16.965999603271484,8.000109672546387
AKA,32.708099,108.931
AKB,52.22029877,-174.2059937
AKC,41.0374984741,-81.4669036865
AKD,20.698999404907227,77.05860137939453
AKE,-1.167,13.92
AKF,24.178699493408203,23.31399917602539
AKG,-3.583,142.3
AKH,24.06,47.58
AKI,60.9029006958,-161.231002808
AKJ,43.670799255371094,142.44700622558594
AKK,56.9387016296,-154.182998657
AKL,-37.008098602299995,174.792007446
AKM,10.88,19.82
AKN,58.676778,-156.649278
AKO,40.1755981445,-103.222000122
AKP,68.13359833,-151.7429962
AKQ,-4.617,105.2
AKR,7.246739864349365,5.3010101318359375
AKS,-8.70256996155,160.682006836
AKT,34.590401,32.9879
AKU,41.262501,80.291702
AKV,60.818599700927734,-78.14859771728516
AKW,30.75,49.68
AKX,50.24580001831055,57.20669937133789
AKY,20.132699966430664,92.87259674072266
ALA,43.35210037231445,77.04049682617188
ALB,42.74829864501953,-73.80169677734375
ALC,38.28219985961914,-0.5581560134887695
ALD,-11.7,-69.35
ALE,30.38,-103.7
ALF,69.976097106934,23.371700286865
ALG,36.691001892089844,3.215409994125366
ALH,-34.94329833984375,117.80899810791016
ALI,27.740900039699998,-98.02690124510002
ALJ,-28.5750007629,16.5333003998
ALK,7.967,39.12
ALL,44.050598,8.12743
ALM,32.8399009705,-105.990997314
ALN,38.890292,-90.046044
ALO,42.557098388671875,-92.40029907226562
ALP,36.18069839477539,37.22439956665039
ALQ,-29.8,-55.73
ALR,-45.211700439453125,169.3730010986328
ALS,37.434898,-105.866997
ALT,-1.933,-54.73
ALU,11.9582,50.748
ALV,40.98,0.45
ALW,46.09489822,-118.288002
ALX,32.914699554399995,-85.9629974365
ALY,31.183900833129883,29.94890022277832
ALZ,56.88,-154.2
AMA,35.219398498535156,-101.70600128173828
AMB,-13.188400268554688,48.987998962402344
AMC,11.0340003967,20.274000167799997
AMD,23.0771999359,72.63469696039999
AME,-15.65,37.68
AMF,-4.167,141.7
AMG,-4.6,143.5
AMH,6.0393900871276855,37.59049987792969
AMI,-8.560709953309999,116.095001221
AMJ,-16.18,-40.68
AMK,37.15,-107.8
AML,8.3,-82.87
AMM,31.7226009369,35.9931983948
AMN,43.38,-84.65
AMO,14.12,15.32
AMP,-24.7,44.73
AMQ,-3.710264,128.089136
AMR,7.083,171.7
AMS,52.3086013794,4.763889789579999
AMT,-26.2,131.1
AMU,-3.517,141.3
AMV,69.76329803466797,61.556400299072266
AMW,42.0,-93.62
AMX,-21.73,135.2
AMY,-17.68,45.67
AMZ,-37.029701232910156,174.97300720214844
ANA,33.85,-118.0
ANB,33.588167,-85.858111
ANC,61.174361,-149.996361
AND,34.494583,-82.709389
ANE,47.47,-0.55
ANF,-23.444478,-70.4451
ANG,45.729247,0.221456
ANH,-8.983,160.5
ANI,61.58,-159.5
ANJ,-2.85,13.83
ANK,39.949831,32.688622
ANL,-11.5,16.75
ANM,-14.999411,50.320233
ANN,55.042436,-131.572233
ANO,-16.17,39.93
ANP,38.98,-76.5
ANQ,41.63,-85.0
ANR,51.189444,4.460278
ANS,-13.706408,-73.350378
ANT,47.15,10.28
ANU,17.136749,-61.792667
ANV,62.65,-160.2
ANW,42.58,-99.98
ANX,69.2925,16.144167
ANY,37.15,-98.03
ANZ,-25.08,132.2
AOA,-9.033,146.8
AOB,-4.917,144.7
AOC,50.9819450378418,12.506388664245605
AOD,11.47,19.28
AOE,39.809898,30.5194
AOG,41.105301,122.853996
AOH,40.706902,-84.026703
AOI,43.616299,13.3623
AOJ,40.73469924926758,140.6909942626953
AOK,35.4213981628418,27.145999908447266
AOL,-29.6894,-57.1521
AON,-6.25,146.0
AOO,40.29639816,-78.31999969
AOR,6.189670085906982,100.39800262451172
AOS,57.47,-153.8
AOT,45.738499,7.36872
AOU,14.814715357,106.821699142
APA,39.57009888,-104.848999
APB,-14.72,-68.5
APC,38.2132,-122.280998
APE,-15.35,-75.17
APF,26.1525993347,-81.7752990723
APG,39.466202,-76.1688
APH,38.05,-77.35
API,4.07607,-73.5627
APK,-15.573599815368652,-146.4149932861328
APL,-15.105600357055664,39.28179931640625
APN,45.078068,-83.560287
APO,7.81196,-76.7164
APP,-8.983,148.1
APQ,-9.775360107421875,-36.62919998168945
APR,-4.3,142.4
APS,-16.229153,-48.964267
APT,35.07,-85.63
APU,-23.55,-51.48
APV,34.52,-117.2
APW,-13.829999923706055,-172.00799560546875
APX,-23.38,-51.95
APY,-9.1,-45.97
APZ,-38.975498,-70.113602
AQA,-21.812000274699997,-48.1329994202
AQB,15.012200355529785,-91.15059661865234
AQC,55.5546989440918,-133.1020050048828
AQG,30.582199,117.050003
AQI,28.335199,46.125099
AQJ,29.611600875854492,35.01810073852539
AQM,-9.933,-63.07
AQP,-16.3411006927,-71.5830993652
AQS,-16.75,179.4
AQY,60.97,-149.1
ARA,30.0378,-91.883904
ARB,42.2229995728,-83.74559783939999
ARC,68.1147,-145.578995
ARD,-8.132340431213379,124.59700012207031
ARE,18.4500007629,-66.6753005981
ARF,0.5333,-70.13
ARG,36.12,-90.92
ARH,64.60030364990234,40.71670150756836
ARI,-18.348499298095703,-70.33869934082031
ARJ,-2.933,140.8
ARK,-3.3677899837493896,36.63330078125
ARL,11.58,1.25
ARM,-30.528099060099997,151.617004395
ARN,59.651944,17.918611
ARO,8.867,-76.43
ARP,-9.9,149.5
ARQ,7.033,-71.43
ARR,-45.013599,-70.812202
ARS,-15.92,-52.25
ART,43.99190139770508,-76.02169799804688
ARU,-21.1413002014,-50.4247016907
ARV,45.92789841,-89.73090363
ARW,46.17660140991211,21.261999130249023
ARX,40.18,-74.12
ARY,-37.30939865112305,142.98899841308594
ARZ,-7.233,12.9
ASA,13.071800231933594,42.64500045776367
ASB,37.98680114746094,58.361000061035156
ASC,-15.72,-63.07
ASD,24.697900772094727,-77.79560089111328
ASE,39.22320175,-106.8690033
ASF,46.2832984924,48.0063018799
ASG,-43.9,171.8
ASH,42.7817001343,-71.51480102539999
ASI,-7.969600200653076,-14.393699645996094
ASJ,28.430599212646484,129.71299743652344
ASK,6.9031701088,-5.36558008194
ASL,32.55,-94.38
ASM,15.291899681091309,38.910701751708984
ASN,33.43,-86.1
ASO,10.018500328063965,34.586299896240234
ASP,-23.806699752807617,133.90199279785156
ASQ,39.5,-117.1
ASR,38.770401001,35.4953994751
AST,46.158000946,-123.878997803
ASU,-25.239999771118164,-57.52000045776367
ASV,-2.645050048828125,37.25310134887695
ASW,23.9643993378,32.8199996948
ASX,46.55,-90.92
ASY,46.03,-99.37
ASZ,-5.867,150.4
ATA,-9.347439765930176,-77.59839630126953
ATB,17.710344314575195,34.0570182800293
ATC,24.6294002533,-75.6737976074
ATD,-8.87333,161.011002
ATE,34.23,-95.62
ATF,-1.2120699882507324,-78.57460021972656
ATG,33.8690986633,72.4009017944
ATH,37.9364013672,23.9444999695
ATI,-30.400699615478516,-56.50790023803711
ATJ,-19.8392214824,47.063713073699994
ATK,70.46730041503906,-157.43600463867188
ATL,33.63669967651367,-84.4281005859375
ATM,-3.2539100646973,-52.254001617432
ATN,-3.667,152.5
ATO,39.33,-82.1
ATP,-3.133,142.4
ATQ,31.7096004486,74.7973022461
ATR,20.506799697875977,-13.04319953918457
ATS,32.85,-104.5
ATT,61.0,-162.8
ATU,52.83,173.2
ATV,13.23,18.32
ATW,44.258098602299995,-88.5190963745
ATX,51.88,68.4
ATY,44.91400146,-97.15470123
ATZ,27.0464992523,31.0119991302
AUA,12.501399993896484,-70.01519775390625
AUB,-20.45,-54.62
AUC,7.06888,-70.7369
AUD,-18.67,139.9
AUE,28.97,33.18
AUF,47.85020065307617,3.497109889984131
AUG,44.320598602299995,-69.7973022461
AUH,24.433000564575195,54.651100158691406
AUI,-1.45,143.1
AUJ,-4.25,142.9
AUK,62.680042266799994,-164.659927368
AUL,8.133,171.2
AUM,43.67,-92.93
AUN,38.9,-121.1
AUO,32.61510086,-85.43399811
AUP,-9.917,149.3
AUQ,-9.76879024506,-139.011001587
AUR,44.89139938354492,2.4219400882720947
AUS,30.194499969482422,-97.6698989868164
AUT,-8.0,125.7
AUU,-13.354067,141.72065
AUV,-5.717,148.4
AUW,44.9262008667,-89.6266021729
AUX,-7.22787,-48.240501
AUY,-20.2492008209,169.770996094
AUZ,41.77,-88.32
AVA,26.2605555556,105.873333333
AVB,46.031898,12.596503
AVF,46.42,6.5
AVG,-15.75,129.9
AVI,22.027099609375,-78.78959655761719
AVK,46.250301361083984,102.802001953125
AVL,35.43619918823242,-82.54180145263672
AVN,43.9073,4.901831
AVO,27.59119987,-81.52780151
AVP,41.338500976599995,-75.72339630130001
AVU,-9.85,160.4
AVV,-38.0393981934,144.468994141
AVW,32.4095993042,-111.218002319
AVX,33.4049,-118.416
AWA,7.066999912261963,38.5
AWB,-4.117,144.9
AWD,-19.2346,169.6009
AWE,-0.75,9.45
AWH,8.267,44.18
AWK,19.282100677490234,166.63600158691406
AWM,35.13,-90.18
AWN,-26.48,139.3
AWO,48.16070175,-122.1589966
AWP,-20.33,137.3
AWR,-4.117,144.9
AWZ,31.337400436399996,48.7620010376
AXA,18.20479965209961,-63.05509948730469
AXB,44.25,-75.9
AXC,-23.08,145.3
AXD,40.855899810791016,25.956300735473633
AXE,-26.88,-52.38
AXG,43.07,-94.23
AXJ,32.482498,130.158997
AXK,14.551300048828125,46.82619857788086
AXL,-19.12,136.8
AXM,4.45278,-75.7664
AXN,45.866297,-95.394669
AXP,22.441799163800003,-73.97090148930002
AXR,-15.248299598693848,-146.61700439453125
AXS,34.7,-99.33
AXT,39.6156005859375,140.218994140625
AXU,14.14680004119873,38.77280044555664
AXV,40.57,-84.18
AXX,36.42,-105.3
AYA,8.3,-75.15
AYC,8.6,-73.62
AYD,-19.3,136.0
AYE,33.98,-118.5
AYG,2.667,-75.52
AYH,52.37,-0.2667
AYI,-0.3833,-72.27
AYK,50.318599700927734,66.95279693603516
AYL,-18.02,135.6
AYN,36.1,114.4
AYO,-27.37065,-56.853944
AYP,-13.154800415039062,-74.20439910888672
AYQ,-25.1861,130.975998
AYR,-19.584444,147.329167
AYS,31.25,-82.4
AYT,36.898701,30.800501
AYU,-6.333,145.9
AYW,-1.2,132.5
AYZ,40.67,-73.42
AZ3,33.12575,68.838517
AZA,33.30780029,-111.6549988
AZB,-10.3,149.3
AZD,31.9048995972,54.2765007019
AZG,19.08,-102.4
AZI,24.428300857543945,54.458099365234375
AZL,-13.47,-58.85
AZN,40.73,72.3
AZO,42.234901428222656,-85.5521011352539
AZP,19.43,-99.08
AZR,27.837600708007812,-0.18641400337219238
AZS,19.2670001984,-69.7419967651
AZT,6.817,-73.28
AZZ,-7.883,13.15
BAA,-5.317,151.0
BAB,39.136100769,-121.43699646
BAC,4.583,-72.97
BAD,32.5018005371,-93.6626968384
BAE,44.38,6.633
BAF,42.157799,-72.715599
BAG,16.375099182128906,120.62000274658203
BAH,26.27079963684082,50.63359832763672
BAI,9.167,-83.33
BAJ,-4.883,149.1
BAK,40.4675,50.046667
BAL,37.929000854499996,41.1166000366
BAM,40.63,-116.9
BAN,-4.167,20.33
BAO,17.38,102.8
BAP,-10.33,149.6
BAQ,10.8896,-74.7808
BAR,57.17,-170.2
BAS,-6.990745,155.886656
BAT,-20.584499359131,-48.594100952148
BAU,-22.3449993134,-49.0537986755
BAV,40.560001373291016,109.99700164794922
BAW,-0.6667,9.45
BAX,53.363800048828125,83.53849792480469
BAY,47.65840148925781,23.469999313354492
BAZ,-0.981292,-62.919601
BBA,-45.916099548339844,-71.68949890136719
BBB,45.32,-95.6
BBC,28.98,-95.97
BBD,31.1793003082,-99.3238983154
BBE,-27.42,117.7
BBF,42.5,-71.18
BBG,3.08583,172.811005
BBH,54.338253,12.710515
BBI,20.244400024399997,85.8178024292
BBJ,49.945278,6.565
BBK,-17.83289909362793,25.162399291992188
BBL,36.65,52.67
BBM,13.095600128173828,103.2239990234375
BBN,3.683,115.5
BBO,10.389200210571289,44.94110107421875
BBP,50.6781005859,-1.10943996906
BBQ,17.635799,-61.828602
BBR,16.0132999420166,-61.7421989440918
BBS,51.32389831542969,-0.8475000262260437
BBT,4.2215800285339355,15.786399841308594
BBU,44.50320053100586,26.102100372314453
BBV,4.667,-6.95
BBW,41.4,-99.63
BBX,40.1375007629,-75.2650985718
BBY,5.85,20.63
BBZ,-13.53,23.12
BCA,20.365299224853516,-74.5062026977539
BCB,37.23,-80.42
BCC,57.62,-155.9
BCD,10.7764,123.014999
BCE,37.706401825,-112.144996643
BCF,6.5,18.28
BCG,7.7,-59.17
BCH,-8.485547,126.399389
BCI,-23.5652999878,145.307006836
BCJ,37.97,-105.8
BCK,-17.4,144.2
BCL,10.768699645996094,-83.58560180664062
BCM,46.52190017700195,26.91029930114746
BCN,41.297078,2.078464
BCO,5.78287,36.562
BCP,-5.85,146.5
BCQ,27.68,14.22
BCR,-8.633,-67.42
BCS,29.87,-90.02
BCT,26.3784999847,-80.1076965332
BCU,10.32,9.833
BCV,61.41650009,-149.5070038
BCW,-11.35,40.35
BCX,53.93,58.33
BCY,6.217,36.67
BCZ,-13.78,137.8
BDA,32.36399841308594,-64.67870330810547
BDB,-24.903900146499996,152.319000244
BDC,-5.467,-45.27
BDD,-10.149999618499999,142.1734
BDE,48.7284011841,-94.612197876
BDF,41.18,-89.65
BDG,37.58,-109.5
BDH,26.531999588,54.824798584
BDI,-3.72472,55.205299
BDJ,-3.4423599243164062,114.76300048828125
BDK,8.033,-2.8
BDL,41.9388999939,-72.68319702149999
BDM,40.31800079345703,27.977699279785156
BDN,24.841519,68.838408
BDO,-6.900629997253418,107.57599639892578
BDP,26.5708007812,88.07959747310001
BDQ,22.3362007141,73.2263031006
BDR,41.16350173950195,-73.1261978149414
BDS,40.6576,17.947001
BDT,4.253210067749023,20.975299835205078
BDU,69.055801391602,18.540399551392
BDV,-7.083,29.73
BDW,-17.3,127.5
BDX,45.45,-105.4
BDY,43.12,-124.4
BDZ,-6.333,147.0
BEA,-8.65,146.5
BEB,57.48109817504883,-7.3627800941467285
BEC,37.694499969499994,-97.21499633790002
BED,42.47000122,-71.28900146
BEE,-12.98,141.6
BEF,11.991000175476074,-83.77410125732422
BEG,44.8184013367,20.3090991974
BEH,42.13,-86.43
BEI,9.38638973236084,34.52190017700195
BEJ,2.15549993515,117.431999207
BEK,26.22,81.23
BEL,-1.3792500495900002,-48.4762992859
BEM,32.400001525878906,-6.333330154418945
BEN,32.096786,20.269472
BEO,-33.0667,151.647995
BEP,15.162799835205078,76.88279724121094
BEQ,52.34260177612305,0.7729390263557434
BER,52.516,13.3769
BES,48.447898864746094,-4.418540000915527
BET,60.77980042,-161.8379974
BEU,-24.346099853515625,139.4600067138672
BEV,31.287000656128,34.722999572754
BEW,-19.79640007019043,34.90760040283203
BEX,51.616389,-1.095833
BEY,33.820899963378906,35.488399505615234
BEZ,-1.3547199964523315,176.0070037841797
BFA,-20.23,-58.17
BFB,58.18,-152.1
BFC,-15.9,145.3
BFD,41.8031005859375,-78.64009857177734
BFE,52.03,8.533
BFF,41.87400055,-103.5960007
BFG,37.55,-110.7
BFH,-25.4050998688,-49.23199844359999
BFI,47.529998779296875,-122.302001953125
BFJ,27.267066,105.472097
BFK,39.77,-104.9
BFL,35.43360138,-119.0569992
BFM,30.626800537100003,-88.06809997559999
BFN,-29.092722,26.302444
BFO,-21.008100509643555,31.57859992980957
BFP,40.7724990845,-80.39140319820001
BFQ,9.083,-79.43
BFR,38.85,-86.48
BFS,54.6575012207,-6.2158298492399995
BFT,32.4122009277,-80.6343994141
BFU,32.8477333333,117.320244444
BFV,15.229499816894531,103.25299835205078
BFW,35.17,-0.5894
BFX,5.536920070650001,10.354599952700001
BGA,7.1265,-73.1848
BGB,-0.1,11.93
BGC,41.85779953,-6.70712995529
BGD,35.65,-101.4
BGE,30.9715004,-84.63739777
BGF,4.39847993850708,18.518800735473633
BGG,6.65,-4.2
BGH,16.63,-14.2
BGI,13.0746002197,-59.4925003052
BGJ,64.47,-21.98
BGK,16.52,-88.42
BGL,28.22,83.67
BGM,42.20869827,-75.97979736
BGN,51.2,6.133
BGO,60.29339981,5.218140125
BGP,-2.167,10.22
BGQ,61.53,-149.8
BGR,44.80739974975586,-68.8281021118164
BGS,32.3,-101.4
BGT,34.57,-113.2
BGU,4.783,22.8
BGV,-29.17,-51.52
BGW,33.262500762900004,44.2346000671
BGX,-31.39049911499,-54.112201690674
BGY,45.673901,9.70417
BGZ,41.58,-8.45
BHA,-0.5833,-80.4
BHB,44.45000076,-68.3615036
BHC,33.92,73.43
BHD,54.618099212646484,-5.872499942779541
BHE,-41.5182991027832,173.8699951171875
BHF,6.55,-77.33
BHG,15.7631,-84.543602
BHH,19.984399795532227,42.62089920043945
BHI,-38.725,-62.1693
BHJ,23.2877998352,69.6701965332
BHK,39.775001525878906,64.4832992553711
BHL,28.95,-113.6
BHM,33.56290054,-86.75350189
BHN,14.781972,45.720083
BHO,23.2875003815,77.3374023438
BHP,27.14739990234375,87.05079650878906
BHQ,-32.0013999939,141.472000122
BHR,27.6781005859375,84.42939758300781
BHS,-33.4094009399,149.651992798
BHT,-23.5,141.6
BHU,21.752199173,72.1852035522
BHV,29.348100662231445,71.71800231933594
BHW,32.08,72.67
BHX,52.453899383499994,-1.74802994728
BHY,21.5394,109.293999
BHZ,-19.75,-43.75
BIA,42.55270004272461,9.48373031616211
BIB,3.067,43.8
BIC,57.67,-157.6
BID,41.1680984497,-71.577796936
BIE,40.32,-96.75
BIF,31.84950066,-106.3799973
BIG,63.9944992065,-145.722000122
BIH,37.3731002808,-118.363998413
BII,11.58,165.4
BIJ,-5.583,146.4
BIK,-1.190019965171814,136.10800170898438
BIL,45.807701110839844,-108.54299926757812
BIM,25.6998996735,-79.2647018433
BIN,34.8,67.82
BIO,43.30110168457031,-2.9106099605560303
BIP,-16.15,143.8
BIQ,43.4683333,-1.5311111
BIR,26.48150062561035,87.26399993896484
BIS,46.772701263427734,-100.74600219726562
BIT,29.53,80.43
BIU,65.64129638671875,-23.546199798583984
BIV,42.742900848389,-86.107398986816
BIW,-19.58,127.6
BIX,30.4104003906,-88.92440032959999
BIY,-32.8970985413,27.279100418099997
BIZ,-5.283,142.0
BJA,36.7120018005,5.0699200630200005
BJB,37.49300003051758,57.30820083618164
BJC,39.90879822,-105.1169968
BJD,66.07,-14.75
BJE,11.21,28.52
BJF,70.60050201416,29.691400527954
BJG,-5.117,119.4
BJH,29.538999557495117,81.1854019165039
BJI,47.50939941,-94.93370056
BJJ,40.8,-81.93
BJK,-6.083,134.3
BJL,13.338000297546387,-16.65220069885254
BJM,-3.3240199089050293,29.318500518798828
BJN,-17.18,37.95
BJO,-22.7733001709,-64.31289672850001
BJP,-22.979162,-46.537508
BJR,11.608099937438965,37.32160186767578
BJS,40.05,116.6
BJT,6.418,80.0
BJU,29.50200080871582,81.66899871826172
BJV,37.25059890749999,27.6643009186
BJW,-8.783,121.0
BJX,20.993499755900004,-101.481002808
BJY,44.935299,20.2575
BJZ,38.891300201416016,-6.8213300704956055
BKA,55.6171989441,38.0600013733
BKB,28.070606,73.207161
BKC,65.9815979004,-161.149002075
BKD,32.71900177,-98.89099884030001
BKE,44.837299346900004,-117.808998108
BKF,39.701698303200004,-104.751998901
BKH,22.022800445599998,-159.785003662
BKI,5.9372100830078125,116.0510025024414
BKJ,10.97,-14.28
BKK,13.681099891662598,100.74700164794922
BKL,41.51750183105469,-81.68329620361328
BKM,3.9739999771118164,115.61799621582031
BKN,13.8,5.233
BKO,12.533499717712402,-7.949940204620361
BKP,-21.03,138.3
BKQ,-24.427799224900003,145.429000854
BKR,12.83,17.25
BKS,-3.8637,102.338997
BKT,37.07,-77.96
BKU,-23.73,44.38
BKW,37.787300109899995,-81.1241989136
BKX,44.3,-96.82
BKY,-2.3089799880981445,28.808799743652344
BKZ,-1.332,31.8212
BLA,10.107099533081055,-64.68920135498047
BLB,8.91479,-79.599602
BLC,5.9,10.0
BLD,35.98,-114.8
BLE,60.422000885009766,15.515199661254883
BLF,37.295799255371094,-81.20770263671875
BLG,2.65000009537,113.766998291
BLH,33.6192016602,-114.717002869
BLI,48.79280090332031,-122.53800201416016
BLJ,35.752101898199996,6.308589935300001
BLK,53.77170181274414,-3.0286099910736084
BLL,55.7402992249,9.15178012848
BLM,40.18,-74.12
BLN,-36.55,146.0
BLO,65.67,-20.3
BLP,-12.02,-77.13
BLQ,44.5354,11.2887
BLR,13.1979,77.706299
BLS,-28.03,147.4
BLT,-23.603099822998047,148.8070068359375
BLU,38.58,-121.5
BLV,38.5452,-89.835197
BLW,21.35,-157.7
BLX,46.33,12.33
BLY,54.23,-10.0
BLZ,-15.679100036621094,34.9739990234375
BMA,59.354400634765625,17.941699981689453
BMB,2.1827800273895264,22.481700897216797
BMC,41.5523986816,-112.06199646
BMD,-19.6867008209,44.541900634799994
BME,-17.944700241088867,122.23200225830078
BMF,5.733,22.8
BMG,39.145999908447266,-86.61669921875
BMH,-6.367,144.6
BMI,40.47710037,-88.91590118
BMJ,5.433,-58.55
BMK,53.5963897705,6.70916700363
BML,44.48,-71.17
BMM,2.0756399631500244,11.493200302124023
BMN,37.1,43.27
BMO,24.268999099731445,97.24620056152344
BMP,-20.803300857543945,149.27000427246094
BMQ,30.73889923095703,-98.23860168457031
BMR,53.73,7.389
BMS,-14.22,-41.67
BMT,30.0706996918,-94.21579742430002
BMU,-8.5396499633789,118.68699645996
BMV,12.668299675,108.120002747
BMW,21.375,0.923888981342
BMX,59.3611984253,-155.259002686
BMY,-19.720600128173828,163.66099548339844
BMZ,-7.833,143.2
BNA,36.124472,-86.678194
BNB,-0.2333,20.83
BNC,0.5667,29.47
BND,27.218317,56.37785
BNE,-27.384167,153.1175
BNF,57.08,-134.8
BNG,33.93,-116.9
BNH,41.74,-72.65
BNI,6.316981,5.599503
BNJ,50.77,7.167
BNK,-28.833889,153.5625
BNL,33.25,-81.38
BNM,-9.083,147.5
BNN,65.461111,12.2175
BNO,43.58,-119.0
BNP,32.97,70.52
BNQ,7.583,126.6
BNR,10.63,-4.767
BNS,8.619575,-70.220825
BNT,-5.733,145.2
BNU,-26.93,-49.05
BNV,-6.417,146.8
BNW,42.07,-93.88
BNX,44.77,17.18
BNY,-11.3,159.8
BNZ,-5.783,144.6
BOA,-5.854000091552734,13.064000129699707
BOB,-16.444400787353516,-151.75100708007812
BOC,9.340849876403809,-82.25080108642578
BOD,44.828300476100004,-0.715556025505
BOE,-1.033,15.38
BOF,38.84,-77.02
BOG,4.70159,-74.1469
BOH,50.779998779296875,-1.8424999713897705
BOI,43.56439972,-116.2229996
BOJ,42.56959915161133,27.515199661254883
BOK,42.05,-124.3
BOL,52.42,-1.5
BOM,19.0886993408,72.8678970337
BON,12.131044,-68.268511
BOO,67.26920318603516,14.365300178527832
BOP,5.967,15.63
BOQ,-6.267,155.2
BOR,47.655601501465,7.0108299255371
BOS,42.36429977,-71.00520325
BOT,-9.5,147.1
BOU,47.058101654052734,2.3702800273895264
BOV,-3.367,153.3
BOW,27.943399429299998,-81.78340148930002
BOX,-16.075300216674805,136.302001953125
BOY,11.160099983215332,-4.33096981048584
BOZ,6.317,16.38
BPA,40.75,-73.48
BPB,-9.133,147.5
BPC,6.039239883422852,10.122599601745605
BPD,-7.75,147.0
BPE,39.666389,119.058889
BPF,-8.583,158.1
BPG,-15.861344,-52.388894
BPH,8.19594955444336,126.3219985961914
BPI,42.58509827,-110.1110001
BPK,-5.53,141.7
BPL,44.895,82.3
BPM,17.4531002045,78.4675979614
BPN,-1.267,116.9
BPR,11.674300193799999,125.478996277
BPS,-16.438600540161133,-39.08089828491211
BPT,29.9507999420166,-94.02069854736328
BPU,33.3,131.5
BPX,30.553600311279297,97.1082992553711
BPY,-16.744530296500002,44.4824838638
BQA,15.77,121.6
BQB,-33.6884231567,115.401596069
BQE,11.297355651855469,-15.838079452514648
BQH,51.33079910279999,0.0324999988079
BQI,-18.12,21.62
BQK,31.258800506591797,-81.46649932861328
BQL,-22.913299560546875,139.89999389648438
BQN,18.494861,-67.129444
BQO,9.267,-3.0
BQQ,-11.07,-43.17
BQS,50.42539978027344,127.41200256347656
BQT,52.108299,23.8981
BQU,12.9884004593,-61.2620010376
BQV,58.43,-135.7
BQW,-20.13,127.8
BRA,-12.078900337219238,-45.00899887084961
BRB,-2.833,-42.83
BRC,-41.1511993408,-71.1575012207
BRD,46.39830017,-94.13809967
BRE,53.0475006104,8.78666973114
BRF,53.8,-1.75
BRG,37.12,-82.82
BRH,-5.7,145.4
BRI,41.138901,16.760599
BRJ,-36.73,147.0
BRK,-30.039199829101562,145.95199584960938
BRL,40.783199310302734,-91.12550354003906
BRM,10.042746543884277,-69.3586196899414
BRN,46.9141,7.497153
BRO,25.90679931640625,-97.4259033203125
BRP,-7.667,146.4
BRQ,49.15129852294922,16.694400787353516
BRR,57.02280044555664,-7.443059921264648
BRS,51.382702,-2.71909
BRT,-11.769200325012207,130.6199951171875
BRU,50.901401519800004,4.48443984985
BRV,53.506943,8.572778
BRW,71.285402,-156.766008
BRX,18.25149917602539,-71.12039947509766
BRY,37.82,-85.47
BRZ,8.733,-7.5
BSA,11.275300025939941,49.14939880371094
BSB,-15.86916732788086,-47.920833587646484
BSC,6.20292,-77.3947
BSD,25.15,99.15
BSE,1.8,109.8
BSF,19.760099411,-155.554000854
BSG,1.9054700136184692,9.805680274963379
BSH,50.83,-0.1333
BSI,40.43,-79.27
BSJ,-37.88750076293945,147.5679931640625
BSK,34.793300628699996,5.73823022842
BSL,47.59,7.5291667
BSM,36.65,52.35
BSN,6.5,17.43
BSO,20.4512996674,121.980003357
BSP,-9.05,141.1
BSQ,31.35,-109.9
BSR,30.549100875854492,47.66210174560547
BSS,-7.5,-46.03
BST,31.55970001220703,64.36499786376953
BSU,1.2247200012207031,19.78890037536621
BSV,-15.67,47.07
BSW,60.4,-146.1
BSX,16.815200805664062,94.77989959716797
BSY,2.35,42.33
BSZ,58.27,-157.5
BTA,4.583,13.68
BTB,3.05,18.52
BTC,7.7,81.67
BTD,-18.63,135.9
BTE,7.5324201583862305,-12.518899917602539
BTF,40.88,-111.9
BTG,7.3,18.3
BTH,1.12102997303,104.119003296
BTI,70.1340026855,-143.582000732
BTJ,5.522872024010001,95.42063713070002
BTK,56.370601654052734,101.697998046875
BTL,42.307300567599995,-85.2515029907
BTM,45.95479965209961,-112.49700164794922
BTN,34.62,-79.68
BTO,4.233,-55.45
BTP,40.77,-79.95
BTQ,-2.6,29.73
BTR,30.533167,-91.149639
BTS,48.17020034790039,17.21269989013672
BTT,66.91390228,-151.529007
BTU,3.12385010719,113.019996643
BTV,44.471900939899996,-73.15329742429999
BTW,-3.45,116.0
BTX,-25.63,140.8
BTY,36.9,-116.8
BTZ,40.233299255371094,29.009199142456055
BUA,-5.4223198890686035,154.67300415039062
BUB,41.78,-99.13
BUC,-17.748600006103516,139.53399658203125
BUD,47.436901092499994,19.255599975599996
BUE,-34.67,-58.63
BUF,42.94049835,-78.73220062
BUG,-12.609000206,13.4036998749
BUH,44.5,26.08
BUI,-3.6822,138.6755
BUJ,35.3325,4.206389
BUK,15.83,43.77
BUL,-7.2,146.7
BUM,38.25,-94.32
BUN,3.819628,-76.989767
BUO,9.5275,45.5549
BUP,30.270139,74.755772
BUQ,-20.01740074157715,28.617900848388672
BUR,34.20069885253906,-118.35900115966797
BUS,41.6102981567,41.5997009277
BUT,27.5622,90.7471
BUU,42.69070053100586,-88.30460357666016
BUV,-30.33,-57.08
BUW,-5.486879825592041,122.56900024414062
BUX,1.5657199621200562,30.220800399780273
BUY,-33.378299713134766,115.677001953125
BUZ,28.9447994232,50.8345985413
BVA,49.45439910888672,2.1127800941467285
BVB,2.84138894081,-60.6922225952
BVC,16.136499404907227,-22.888900756835938
BVD,66.36,-147.4
BVE,48.780001,5.980003
BVF,-16.8,178.6
BVG,70.871398925781,29.034200668335
BVH,-12.694399833679,-60.098300933838
BVI,-25.897499084472656,139.34800720214844
BVK,-13.55,-63.8
BVL,-13.58,-63.62
BVM,-15.85,-38.9
BVO,36.77,-96.0
BVP,-5.383,141.7
BVR,14.87,-24.73
BVS,-1.6365300416946411,-50.443599700927734
BVU,65.17,-152.1
BVW,-12.45,143.3
BVX,35.77,-91.65
BVY,42.584201812699995,-70.91649627689999
BVZ,-17.98,125.5
BWA,27.505685,83.416293
BWB,-20.86440086364746,115.40599822998047
BWC,32.98,-115.5
BWD,31.8,-98.95
BWE,52.319199,10.5561
BWF,54.1286111,-3.2675
BWG,36.964500427199994,-86.41970062259999
BWH,5.3,100.3
BWI,39.17539978,-76.66829681
BWJ,-6.4,146.9
BWK,43.285701751708984,16.67970085144043
BWL,36.8,-97.28
BWM,46.13,-103.6
BWN,4.9442,114.928353
BWO,51.8582992554,47.7456016541
BWP,-3.083,141.1
BWQ,-29.973899841308594,146.81700134277344
BWS,48.97,-122.8
BWT,-40.9989013671875,145.7310028076172
BWU,-33.924400329589844,150.98800659179688
BWW,22.621299743699996,-79.1472015381
BWY,52.1,1.317
BXA,30.78,-89.87
BXB,-2.5322399139404297,133.43899536132812
BXC,42.48,-71.53
BXD,-7.167,139.6
BXE,14.847299575805664,-12.468299865722656
BXF,-17.55,128.3
BXG,-36.73,144.3
BXH,46.8932991027832,75.00499725341797
BXI,9.517,-6.483
BXJ,46.88,75.02
BXK,33.42039871,-112.685997
BXL,-16.93,177.4
BXM,-2.283,139.6
BXN,37.13,27.67
BXO,46.974444,8.396944
BXP,52.00078,23.1325278
BXR,29.084199905395508,58.45000076293945
BXS,33.25,-116.3
BXT,0.1333,117.5
BXU,8.9515,125.4788
BXV,64.8,-13.83
BXX,9.967,43.12
BXZ,-5.717,147.9
BYA,64.08,-141.1
BYB,25.62,56.25
BYC,-21.960899353027344,-63.65169906616211
BYD,14.13,46.55
BYF,49.97,2.693
BYG,44.35,-106.7
BYH,35.9642982483,-89.94400024410001
BYI,42.542598724399994,-113.772003174
BYK,7.738800048828125,-5.073669910430908
BYL,7.367,-10.0
BYM,20.396400451660156,-76.62139892578125
BYN,46.33,100.7
BYO,-21.247299,-56.452499
BYQ,3.467,117.9
BYR,55.58,12.13
BYS,35.2804985046,-116.629997253
BYT,51.66859817504883,-9.484169960021973
BYU,49.98500061035156,11.640000343322754
BYW,48.58,-122.8
BYX,-13.2,136.2
BYY,28.9733009338,-95.8635025024
BZA,13.949999809265137,-84.5999984741211
BZB,-11.35,40.35
BZC,-22.770999908447266,-41.96289825439453
BZD,-34.623600006103516,143.5780029296875
BZE,17.539100646972656,-88.30819702148438
BZF,40.58,-122.4
BZG,53.096801757799994,17.9776992798
BZH,-16.82,28.35
BZI,39.619300842285156,27.926000595092773
BZK,53.214199066199996,34.176399231
BZL,22.801000595092773,90.30120086669922
BZM,51.5,4.283
BZN,45.777464,-111.152981
BZO,46.460201,11.3264
BZP,-15.22,144.6
BZR,43.32350158691406,3.3538999557495117
BZS,-22.770972,-41.962861
BZT,29.05,-95.57
BZU,2.818347,24.793706
BZV,-4.251699924468994,15.253000259399414
BZY,47.83810043334961,27.7814998626709
BZZ,51.75,-1.58362
C03,41.44620132446289,-85.93479919433594
CAA,14.88,-85.88
CAB,-5.59699010848999,12.188400268554688
CAC,-25.0002994537,-53.500801086399996
CAD,44.27,-85.42
CAE,33.93880081176758,-81.11949920654297
CAF,-4.871520042419434,-66.89749908447266
CAG,39.251499,9.05428
CAH,9.177667,105.177778
CAI,30.12190055847168,31.40559959411621
CAJ,6.231988906860352,-62.85443115234375
CAK,40.916099548339844,-81.44219970703125
CAL,55.437198638916016,-5.686389923095703
CAM,-20.02,-63.57
CAN,23.392436,113.298786
CAO,36.45,-103.2
CAP,19.732999801635742,-72.1947021484375
CAQ,7.96847,-75.1985
CAR,46.871498107899995,-68.0178985596
CAS,33.57,-7.667
CAT,24.31529998779297,-75.45230102539062
CAU,-8.282389640808105,-36.01350021362305
CAV,-11.88,22.93
CAW,-21.698299408,-41.301700592
CAX,54.9375,-2.8091700077056885
CAY,4.819809913639999,-52.360401153599994
CAZ,-31.538299560546875,145.79400634765625
CBA,57.72,-135.2
CBB,-17.421100616455078,-66.1771011352539
CBC,-18.67,125.4
CBD,9.167,92.78
CBE,39.615398407,-78.7609024048
CBF,41.2592010498,-95.760597229
CBG,52.2050018311,0.17499999702
CBH,31.645700454711914,-2.269860029220581
CBI,-40.33,148.2
CBJ,17.928981,-71.644769
CBK,39.42,-101.1
CBL,8.12216091156,-63.5369567871
CBM,33.6437988281,-88.44380187990001
CBN,-6.75,108.5
CBO,7.1652398109436035,124.20999908447266
CBP,40.15,-8.467
CBQ,4.976019859313965,8.347200393676758
CBR,-35.30690002441406,149.19500732421875
CBS,10.38,-71.47
CBT,-12.4792,13.4869
CBU,51.72,14.35
CBV,15.468999862670898,-90.40670013427734
CBW,-24.0,-52.36
CBX,-33.064444,147.209167
CBY,-19.63,140.9
CBZ,55.38,-132.4
CCA,35.28,-94.23
CCB,34.1115989685,-117.68800354
CCC,22.461000442499998,-78.32839965820001
CCD,34.06,-118.4
CCE,18.07,-63.03
CCF,43.215999603271484,2.3063199520111084
CCG,31.4,-102.4
CCH,-46.58330154418945,-71.6874008178711
CCI,-27.180599212646484,-52.05270004272461
CCJ,11.1367998123,75.95529937740001
CCK,-12.1883001328,96.8339004517
CCL,-26.774999618530273,150.61700439453125
CCM,-28.7244434357,-49.4213905334
CCN,34.53,65.27
CCO,33.31159973144531,-84.7697982788086
CCP,-36.772701263427734,-73.06310272216797
CCQ,-12.6,-38.97
CCR,37.9897003174,-122.056999207
CCS,10.6031169891,-66.9905853271
CCT,-37.85,-67.87
CCU,22.654699325561523,88.44670104980469
CCV,-16.264999389648438,167.9239959716797
CCW,-33.67,136.9
CCX,-16.04360008239746,-57.62990188598633
CCY,43.0726013184,-92.6108016968
CCZ,25.41710090637207,-77.88089752197266
CDA,-12.903300285339355,132.53199768066406
CDB,55.20610046386719,-162.72500610351562
CDC,37.70100021362305,-113.0989990234375
CDD,15.32,-83.6
CDE,8.233,-77.33
CDF,46.75,12.33
CDG,49.0127983093,2.54999995232
CDH,33.62,-92.77
CDI,-20.84,-41.19
CDJ,-8.348349571228027,-49.30149841308594
CDK,29.13,-83.03
CDL,65.9,-161.9
CDN,34.27,-80.6
CDO,-32.13,25.6
CDP,14.510000228881836,78.77279663085938
CDQ,-18.3,142.3
CDR,42.837600708,-103.095001221
CDS,34.4337997437,-100.288002014
CDT,40.213889,0.073333
CDU,-34.04029846191406,150.68699645996094
CDV,60.4917984,-145.4779968
CDW,40.875198364300005,-74.2814025879
CDY,7.017,118.5
CDZ,36.53,-6.3
CEA,37.65,-97.25
CEB,10.307499885559,123.97899627686
CEC,41.78020096,-124.2369995
CED,-32.13059997558594,133.7100067138672
CEE,59.273601532,38.015800476100004
CEF,42.19400024,-72.53479767
CEG,53.1781005859375,-2.9777801036834717
CEH,-10.55,33.8
CEI,19.952299118,99.88289642330001
CEJ,51.4021987915,31.1583003998
CEK,55.305801,61.5033
CEL,24.95,-76.45
CEM,65.57379913,-144.7830048
CEN,27.392639,-109.833111
CEO,-13.33,14.5
CEP,-16.23,-62.08
CEQ,43.54199981689453,6.953479766845703
CER,49.65010070800781,-1.4702800512313843
CES,-32.787498,151.341995
CET,47.08209991455078,-0.8770639896392822
CEU,34.6719017,-82.8864975
CEV,39.63,-85.13
CEW,30.778799057,-86.522102356
CEX,65.05,-146.1
CEY,36.67,-88.37
CEZ,37.3030014038,-108.627998352
CFA,58.22,-157.5
CFB,-22.921699523900003,-42.074298858599995
CFC,-26.78840065,-50.9398002625
CFD,30.715700149499998,-96.3313980103
CFE,45.7867012024,3.1691699028
CFF,-12.78,15.72
CFG,22.149999618530273,-80.41419982910156
CFH,-26.52,139.5
CFI,-17.15,131.4
CFK,36.21,1.332
CFN,55.05,-8.333
CFO,-10.634400367736816,-51.5635986328125
CFP,-18.78,144.4
CFQ,49.04,-116.5
CFR,49.173301696777344,-0.44999998807907104
CFS,-30.3206005096,153.115997314
CFT,32.95,-109.2
CFU,39.601898193359375,19.911699295043945
CFV,37.09400177,-95.5718994141
CGA,55.48,-133.2
CGB,-15.6528997421,-56.1166992188
CGC,28.867300033569336,-82.57129669189453
CGD,28.9188995361,111.63999939
CGE,38.55,-76.03
CGF,41.5651016235,-81.4863967896
CGG,14.58,121.0
CGH,-23.626110076904297,-46.65638732910156
CGI,37.22529983520508,-89.57080078125
CGJ,-12.53,27.87
CGK,-6.1255698204,106.65599823
CGM,9.253520011901855,124.70700073242188
CGN,50.865917,7.142744
CGO,34.519699096699995,113.841003418
CGP,22.24959945678711,91.81330108642578
CGQ,43.9962005615,125.684997559
CGR,-20.468700408900002,-54.6725006104
CGS,39.0,-76.92
CGT,20.45,-12.37
CGU,8.583,-64.22
CGV,-32.27,125.5
CGX,41.85879898071289,-87.60790252685547
CGY,8.41562,124.611
CGZ,32.954899,-111.766998
CHA,35.035301208496094,-85.20379638671875
CHB,35.42,74.08
CHC,-43.48939895629883,172.53199768066406
CHD,33.32,-111.9
CHE,51.95,-10.22
CHF,35.13,128.7
CHG,41.538101,120.434998
CHH,-6.201809883117676,-77.8561019897461
CHI,41.78,-87.75
CHJ,-20.2,32.63
CHK,35.03,-97.97
CHL,44.5,-114.2
CHM,-9.149609565734863,-78.5238037109375
CHN,36.7166,127.499119
CHO,38.13859939575195,-78.4529037475586
CHP,65.47,-144.6
CHQ,35.531700134277344,24.149700164794922
CHR,46.86027778,1.7211111
CHS,32.89860153,-80.04049683
CHT,-43.810001373291016,-176.45700073242188
CHU,61.67,-159.3
CHV,41.73,-7.467
CHW,39.85,98.42
CHX,9.458640098571777,-82.51679992675781
CHY,-6.711944,156.396111
CHZ,42.58,-121.9
CIA,41.7994,12.5949
CIB,33.37,-118.4
CIC,39.79539871,-121.8580017
CID,41.884700775146484,-91.71080017089844
CIE,-33.35,116.2
CIF,42.23500061035156,118.90799713134766
CIG,40.5,-107.6
CIH,36.247501,113.125999
CIJ,-11.040399551400002,-68.7829971313
CIK,66.6449966431,-143.740005493
CIL,64.9,-163.7
CIM,6.483,-74.03
CIN,42.05,-94.78
CIO,-23.442363,-57.427253
CIP,-13.558300018310547,32.58720016479492
CIQ,14.8,-89.55
CIR,37.0,-89.18
CIS,-2.7681200504300003,-171.710006714
CIT,42.364200592041016,69.47889709472656
CIU,46.25080108642578,-84.47239685058594
CIV,55.22,-132.2
CIW,12.699000358581543,-61.34239959716797
CIX,-6.787479877471924,-79.8281021118164
CIY,36.994601,14.607182
CIZ,-4.134059906005859,-63.132598876953125
CJA,-7.1391801834106445,-78.4894027709961
CJB,11.029999733,77.0434036255
CJC,-22.498199462890625,-68.90360260009766
CJD,2.067,-74.58
CJF,-22.96669960022,118.81300354004
CJH,51.83,-124.0
CJI,38.98,-3.917
CJJ,36.7165985107,127.499000549
CJL,35.886600494384766,71.80059814453125
CJM,10.711199760437012,99.36170196533203
CJN,32.8,-117.0
CJS,31.63610076904297,-106.42900085449219
CJT,16.17,-92.05
CJU,33.51129913330078,126.49299621582031
CKA,42.75,-95.55
CKB,39.2966003418,-80.2281036377
CKC,49.41559982299805,31.99530029296875
CKD,61.87,-158.1
CKE,39.03,-122.8
CKF,31.98880005,-83.77390289
CKG,29.719200134277344,106.64199829101562
CKH,70.62310028076172,147.90199279785156
CKI,-11.08,132.5
CKK,36.28,-91.5
CKL,55.8782997131,38.0616989136
CKM,34.2,-90.57
CKN,47.85,-96.62
CKO,-23.15,-50.6
CKR,48.6,-123.0
CKS,-6.11527776718,-50.0013885498
CKT,36.501178,61.064903
CKU,60.54,-145.7
CKV,36.6218986511,-87.4150009155
CKX,64.08,-141.9
CKY,9.57689,-13.612
CKZ,40.1376991272,26.4267997742
CLA,23.43,91.18
CLB,53.87,-9.283
CLC,29.55,-95.13
CLD,33.12829971,-117.2799988
CLE,41.4117012024,-81.8498001099
CLG,36.15,-120.4
CLH,-31.83,149.7
CLI,44.62,-88.77
CLJ,46.78519821166992,23.686199188232422
CLK,35.54,-98.93
CLL,30.58860016,-96.36380005
CLM,48.120201110839844,-123.5
CLN,-7.320444,-47.458667
CLO,3.54322,-76.3816
CLP,58.85,-158.5
CLQ,19.2770004272,-103.577003479
CLR,33.13,-115.5
CLS,46.676998138399995,-122.983001709
CLT,35.2140007019043,-80.94309997558594
CLU,39.2619018555,-85.8963012695
CLV,-17.725299835205,-48.607498168945
CLW,27.9766998291,-82.7586975098
CLX,-25.33,-57.67
CLY,42.5244444,8.7930556
CLZ,8.924656,-67.417094
CMA,-28.030000686645508,145.6219940185547
CMB,7.180759906768799,79.88410186767578
CMC,-2.9,-40.83
CMD,-34.6239013671875,148.0279998779297
CME,18.65369987487793,-91.79900360107422
CMF,45.638099670410156,5.880229949951172
CMG,-19.0119438171,-57.6713905334
CMH,39.99800109863281,-82.89189910888672
CMI,40.03919983,-88.27809906
CMJ,23.25,119.4
CMK,-14.306900024414062,35.13249969482422
CML,-19.92,138.1
CMM,17.5,-90.17
CMN,33.367467,-7.589967
CMO,5.367,48.52
CMP,-9.31997013092041,-50.32849884033203
CMQ,-22.773099899291992,147.62100219726562
CMR,48.109901428222656,7.359010219573975
CMS,10.5,50.45
CMT,-2.25,-49.5
CMU,-6.024290084838867,144.9709930419922
CMV,-36.75,175.5
CMW,21.420299530029297,-77.84750366210938
CMX,47.168399810791016,-88.48909759521484
CMY,43.96,-90.74
CMZ,-17.82,35.33
CNA,30.98,-110.3
CNB,-30.983333,148.375556
CNC,-10.05,143.1
CND,44.362222,28.488333
CNE,38.42,-105.1
CNF,-19.63375,-43.968856
CNG,45.658333,-0.3175
CNH,43.37,-72.37
CNI,39.27,122.5
CNJ,-20.668611,140.504444
CNK,39.55,-97.65
CNL,57.48,10.22
CNM,32.337472,-104.263278
CNN,56.87,124.9
CNO,34.02,-117.7
CNP,70.73,-22.65
CNQ,-27.445503,-58.761864
CNR,-26.332542,-70.607308
CNS,-16.885833,145.755278
CNT,-27.22,-61.22
CNU,37.68,-95.45
CNV,-15.63,-38.87
CNW,31.55,-97.17
CNX,18.766847,98.962644
CNY,38.77,-109.8
CNZ,-13.68,19.88
COA,38.03,-120.4
COB,-15.67,131.0
COC,-31.2969,-57.9966
COD,44.520198822,-109.024002075
COE,47.77429962,-116.8199997
COF,28.2348995209,-80.6100997925
COG,5.08333,-76.7
COH,26.330499649,89.4672012329
COI,28.13,-80.63
COJ,-31.332500457763672,149.26699829101562
COK,10.1520004272,76.40190124510002
COL,56.62,-6.617
COM,31.83,-99.43
CON,43.2,-71.53
COO,6.357230186462402,2.384350061416626
COP,42.72,-74.93
COQ,48.13570022583008,114.64600372314453
COR,-31.323600769,-64.2080001831
COS,38.805801391602,-104.70099639893
COT,28.45669937,-99.22029877
COU,38.81809997558594,-92.21959686279297
COV,40.28,-7.5
COW,-32.8,-70.63
COX,24.158700943,-77.5897979736
COY,-21.8,117.8
COZ,18.907499313354,-70.721900939941
CPA,4.3790202140808105,-7.6969499588012695
CPB,8.63333,-77.35
CPC,-40.0754013062,-71.137298584
CPD,-29.040000915527344,134.7209930419922
CPE,19.816799163800003,-90.5002975464
CPF,-7.183,111.5
CPG,-40.8,-62.98
CPH,55.617900848389,12.656000137329
CPI,-5.433,152.1
CPL,3.7,-75.75
CPM,33.9,-118.2
CPN,-10.18,148.4
CPO,-27.2968997955,-70.4131011963
CPQ,-22.85919952392578,-47.10820007324219
CPR,42.90800095,-106.4639969
CPS,38.57,-90.17
CPT,-33.9648017883,18.6016998291
CPU,-1.8,-44.87
CPV,-7.2699198722839355,-35.896400451660156
CPX,18.313289,-65.304324
CQA,-13.57,-52.27
CQD,32.2971992493,50.842201232899995
CQF,50.962100982666016,1.954759955406189
CQM,38.8563888889,-3.97
CQP,-18.2,147.5
CQS,-10.87,-61.95
CQT,2.152175,-74.76635
CQW,34.71289825,-79.95700073
CRA,44.31809997558594,23.888599395751953
CRB,-29.52,148.6
CRC,4.75818,-75.9557
CRD,-45.7853,-67.4655
CRE,33.8116989136,-78.72389984130001
CRF,4.933,15.9
CRG,30.3362998962,-81.51439666750001
CRH,-27.65,152.0
CRI,22.745599746699998,-74.1824035645
CRJ,-31.9,132.3
CRK,15.1859998703,120.559997559
CRL,50.459201812699995,4.45382022858
CRM,12.502400398254395,124.63600158691406
CRN,57.65,-4.05
CRO,36.1,-119.6
CRP,27.77039909362793,-97.5011978149414
CRQ,-17.652299880981,-39.253101348877
CRR,-29.87,-61.83
CRS,32.1,-96.47
CRT,33.13,-91.97
CRU,12.47,-61.47
CRV,38.9972,17.0802
CRW,38.37310028076172,-81.59320068359375
CRX,34.9,-88.6
CRY,-15.7,128.5
CRZ,39.08330154418945,63.61330032348633
CSA,56.0574989319,-6.243060112
CSB,45.41999816894531,22.253299713134766
CSC,10.4139995575,-85.0916976929
CSD,-17.97,135.9
CSE,38.87,-107.0
CSF,49.253501892089844,2.5191400051116943
CSG,32.516300201416016,-84.93890380859375
CSH,65.0299987793,35.7333335876
CSI,-28.882778,153.066944
CSJ,10.35,107.1
CSK,12.410200119018555,-16.7460994720459
CSL,35.32,-120.7
CSM,35.52,-98.98
CSN,39.2,-119.7
CSO,51.8563995361,11.42029953
CSP,58.2,-136.6
CSQ,41.07,-94.37
CSR,5.833,-68.13
CSS,-19.15,-51.75
CST,-17.62,177.1
CSU,-22.93235,-43.719092
CSV,35.9513015747,-85.08499908450001
CSW,-13.17,-61.08
CSX,28.189199447599997,113.220001221
CSY,56.090301513671875,47.3473014831543
CSZ,-37.43,-67.88
CTA,37.466801,15.0664
CTB,48.6083984375,-112.375999451
CTC,-28.5956001282,-65.751701355
CTD,7.987840175628662,-80.40969848632812
CTE,9.317,-79.1
CTF,15.01,-91.5
CTG,10.4424,-75.513
CTH,39.97900009,-75.8655014
CTI,-15.17,19.17
CTJ,33.63100051879883,-85.1520004272461
CTK,43.3,-96.58
CTL,-26.4132995605,146.261993408
CTM,18.50469970703125,-88.32679748535156
CTN,-15.444722,145.184444
CTO,40.92,-72.75
CTP,-1.25,-46.02
CTQ,-18.83,-50.13
CTR,-17.58,131.0
CTS,42.77519989013672,141.69200134277344
CTT,43.252498626708984,5.785190105438232
CTU,30.578500747680664,103.9469985961914
CTW,34.73,-112.0
CTX,42.6,-76.17
CTY,29.6354999542,-83.10479736330001
CTZ,35.0,-78.33
CUA,25.053800582886,-111.61499786377
CUB,33.970500946,-80.9952011108
CUC,7.92757,-72.5115
CUD,-26.8,153.2
CUE,-2.889470100402832,-78.9843978881836
CUF,44.547001,7.62322
CUG,-33.3,148.7
CUH,35.98,-96.77
CUI,4.667,-72.0
CUJ,11.88,120.0
CUK,17.77,-88.0
CUL,24.7644996643,-107.474998474
CUM,10.450332641601562,-64.1304702758789
CUN,21.036528,-86.877083
CUO,1.033,-71.23
CUP,10.660014152526855,-63.261680603027344
CUQ,-13.761133,143.113311
CUR,12.1889,-68.959801
CUS,31.83,-107.6
CUT,-38.939683,-69.264642
CUU,28.702899932900003,-105.964996338
CUV,8.767,-72.55
CUW,58.35,-133.8
CUX,27.72,-97.51
CUY,-27.45,117.9
CUZ,-13.535699844400002,-71.9387969971
CVA,40.35,-79.93
CVB,-4.8,144.7
CVC,-33.70970153808594,136.5050048828125
CVE,9.40092,-75.6913
CVF,45.39670181274414,6.6347198486328125
CVG,39.0488014221,-84.6678009033
CVH,-37.92,-71.0
CVI,-46.43,-67.52
CVJ,18.834800720214844,-99.26129913330078
CVL,-9.7,150.1
CVM,23.7033004761,-98.9564971924
CVN,34.42,-103.1
CVO,44.49720001,-123.2900009
CVQ,-24.880211,113.67174
CVR,34.02,-118.4
CVS,34.3828010559,-103.321998596
CVT,52.3697013855,-1.4797199964499999
CVU,39.67150115966797,-31.11359977722168
CVX,45.3047981262207,-85.2748031616211
CWA,44.7775993347,-89.6668014526
CWB,-25.5284996033,-49.1758003235
CWC,48.259300231933594,25.98080062866211
CWF,30.21,-93.15
CWG,32.83,-84.88
CWI,41.8311004639,-90.3291015625
CWL,51.39670181274414,-3.343329906463623
CWO,32.78,-98.06
CWP,33.77,72.37
CWR,-27.72,138.3
CWS,47.6,-122.3
CWT,-33.84469985961914,148.6490020751953
CWW,-35.99470138549805,146.35699462890625
CWX,32.25,-109.9
CXA,7.626078,-66.164917
CXB,21.452199935913086,91.96389770507812
CXC,61.57,-144.4
CXF,67.27,-150.2
CXH,49.2943992615,-123.111000061
CXI,1.9861600399017334,-157.35000610351562
CXJ,-29.197099685699996,-51.1875
CXL,32.6694984436,-115.513000488
CXN,11.83,49.95
CXO,30.3518009186,-95.4144973755
CXP,-7.645060062410001,109.033996582
CXQ,-18.92,125.9
CXR,11.998200416564941,109.21900177001953
CXT,-20.043056,146.273056
CXY,40.2170982361,-76.85150146480001
CYA,20.545994,-100.88655
CYB,19.687000274658203,-79.88279724121094
CYC,17.7,-88.03
CYE,41.2,-75.82
CYF,60.1492004395,-164.285995483
CYG,-36.18280029296875,147.88800048828125
CYI,23.46179962158203,120.39299774169922
CYL,15.48,-86.68
CYM,57.51,-134.9
CYO,21.6165008545,-81.5459976196
CYP,12.072699546813965,124.54499816894531
CYR,-34.456401824951,-57.770599365234
CYS,41.15570068,-104.8119965
CYT,60.082000732400004,-142.492996216
CYU,10.858099937438965,121.06900024414062
CYW,20.546,-100.887001
CYX,68.7406005859375,161.33799743652344
CYZ,16.9298992157,121.752998352
CZA,20.6413002014,-88.4461975098
CZB,-28.63,-53.5
CZC,61.95,-145.3
CZE,11.41494369506836,-69.68090057373047
CZF,61.78030014,-166.0390015
CZG,42.078499,-76.096296
CZH,18.33,-88.5
CZJ,9.017,-77.98
CZK,45.67,-121.9
CZL,36.2760009765625,6.620389938354492
CZM,20.52239990234375,-86.92559814453125
CZN,62.08,-142.1
CZO,62.57,-144.7
CZP,55.97,-133.8
CZS,-7.59990978241,-72.7695007324
CZT,28.52,-99.87
CZU,9.33274,-75.2856
CZW,50.885,19.204722
CZX,31.919701,119.778999
CZY,-24.5,139.5
CZZ,2.367,9.817
DAA,38.715000152600005,-77.1809997559
DAB,29.179899,-81.058098
DAC,23.843347,90.397783
DAD,16.043899536132812,108.1989974975586
DAE,27.5,94.33
DAF,-4.733,145.0
DAG,34.85369873,-116.7870026
DAH,13.87,46.13
DAI,27.03,88.27
DAJ,-9.433,142.5
DAK,25.41,29.0
DAL,32.84709930419922,-96.85179901123047
DAM,33.4114990234375,36.51559829711914
DAN,36.572861,-79.336111
DAO,-8.417,147.8
DAP,29.67,80.5
DAR,-6.87810993195,39.202598571799996
DAS,42.18,-119.7
DAT,40.060299,113.482002
DAU,-9.08675956726,143.207992554
DAV,8.390999794006348,-82.43499755859375
DAW,43.28409957885742,-70.9292984008789
DAX,31.1302,107.4295
DAY,39.902400970458984,-84.21939849853516
DAZ,38.47,70.88
DBA,28.878299713100002,64.3998031616
DBB,30.92449951171875,28.46139907836914
DBD,23.833999633789062,86.42530059814453
DBM,10.350000381469727,37.71699905395508
DBN,32.55,-82.98
DBO,-32.2167015076,148.574996948
DBP,-6.283,141.9
DBQ,42.40200043,-90.70950317
DBS,44.17,-112.2
DBT,11.967000007629395,38.0
DBU,7.851,80.65
DBV,42.5614013671875,18.268199920654297
DBY,-27.155278,151.267222
DCA,38.8521,-77.037697
DCF,15.336700439453125,-61.3922004699707
DCI,39.354198,8.97248
DCK,66.93,-156.9
DCM,43.55630111694336,2.289180040359497
DCN,-17.58,123.8
DCR,40.83,-84.93
DCT,22.18,-75.73
DCU,34.6,-86.98
DDC,37.76340103149414,-99.9655990600586
DDG,40.2,124.3
DDI,-20.17,148.2
DDM,-8.75,147.5
DDN,-16.92,141.3
DDP,18.5,-66.25
DDU,26.73,67.78
DEA,29.961000442504883,70.48590087890625
DEB,47.48889923095703,21.615299224853516
DEC,39.834598541259766,-88.8656997680664
DED,30.189699173,78.18029785159999
DEE,-36.242155,149.130147
DEF,32.43,48.38
DEH,43.32,-91.83
DEI,-3.8,55.67
DEL,28.566499710083008,77.10310363769531
DEM,8.553999900817871,34.858001708984375
DEN,39.861656,-104.673178
DEO,42.3,-83.23
DEP,17.38,78.47
DER,-6.1,146.8
DES,-5.6967,53.6558
DET,42.40919876,-83.00990295
DEZ,35.285400390625,40.17599868774414
DFI,41.28,-84.37
DFP,-16.0,143.0
DFW,32.89680099487305,-97.03800201416016
DGA,17.18,-88.58
DGB,58.08,-152.8
DGC,8.233,43.58
DGD,-27.82,117.3
DGE,-32.5625,149.610992432
DGF,10.0,-120.2
DGG,-2.533,140.7
DGK,-22.18,35.42
DGL,31.3425998688,-109.505996704
DGM,23.03,113.7
DGN,37.5,77.47
DGO,24.1242008209,-104.527999878
DGP,55.944721221900004,26.6650009155
DGR,-35.93,173.9
DGT,9.3337097168,123.300003052
DGU,12.47,-3.483
DGW,42.75,-105.4
DHA,26.265399932900003,50.152000427199994
DHD,-27.07,141.9
DHF,24.248249,54.547722
DHI,28.753299713134766,80.58190155029297
DHL,13.73,44.72
DHM,32.16510009765625,76.26339721679688
DHN,31.321339,-85.449628
DHR,52.92340087890625,4.780620098114014
DHT,36.0225982666,-102.54699707
DIB,27.4839000702,95.0168991089
DIC,-8.55,125.6
DIE,-12.34939956665039,49.29169845581055
DIG,27.7936,99.6772
DIJ,47.268901825,5.09000015259
DIK,46.7974014282,-102.802001953
DIL,-8.54640007019,125.526000977
DIM,6.65,-4.7
DIN,21.38,103.0
DIO,65.75,-169.0
DIP,12.05,1.783
DIQ,-20.180700302124,-44.870899200439
DIR,9.624699592590332,41.85419845581055
DIS,-4.20635,12.6599
DIU,20.71310043334961,70.92109680175781
DIV,5.833,-5.367
DIW,5.991,80.73
DIY,37.893901825,40.201000213600004
DJA,9.7,1.667
DJB,-1.6380200386047363,103.64399719238281
DJE,33.875,10.775500297546387
DJG,24.292800903299998,9.45244026184
DJJ,-2.5769500732421875,140.51600646972656
DJM,-2.533,14.75
DJN,64.03,-145.7
DJO,6.792809963226318,-6.473189830780029
DJU,64.67,-14.17
DKI,-17.9416999817,146.13999939
DKK,42.49330139,-79.27200317
DKR,14.739700317382812,-17.49020004272461
DKS,73.51780700683594,80.37966918945312
DKV,-24.87,129.1
DKX,35.96390151977539,-83.8739013671875
DLA,4.0060801506,9.719479560849999
DLB,-8.45,118.8
DLC,38.9656982421875,121.53900146484375
DLD,60.416667,8.512778
DLE,47.042686,5.435061
DLF,29.359500885,-100.777999878
DLG,59.04470062,-158.5050049
DLH,46.8420982361,-92.19360351559999
DLI,11.75,108.36699676513672
DLK,-29.0132999420166,138.4810028076172
DLL,43.52270126,-89.77020264
DLM,36.7131004333,28.7924995422
DLN,45.22,-112.6
DLO,55.13,-132.1
DLS,45.6,-121.2
DLU,25.649401,100.319
DLV,-12.42,130.3
DLY,-18.7693996429,169.00100708
DLZ,43.59170150756836,104.43000030517578
DMA,32.1665000916,-110.883003235
DMB,42.853599548339844,71.30359649658203
DMD,-17.94029998779297,138.82200622558594
DME,55.40879821777344,37.90629959106445
DMK,13.9125995636,100.607002258
DMM,26.471200942993164,49.79790115356445
DMN,32.262306,-107.72064
DMO,38.83,-93.42
DMR,14.53,44.43
DMT,-14.376899719238281,-56.40039825439453
DMU,25.883899688699998,93.77110290530001
DNA,26.355612,127.767633
DNB,-16.08,142.4
DNC,7.267,-8.15
DND,56.452499,-3.025833
DNE,33.17,-97.05
DNF,32.55,22.77
DNG,55.044192,-8.341
DNH,40.2,94.68
DNI,14.38,33.53
DNK,48.357222,35.100556
DNL,33.47,-82.04
DNM,-25.92,113.5
DNN,34.72,-84.87
DNO,-11.62,-46.85
DNP,28.12,82.32
DNQ,-35.55,145.0
DNR,48.587683,-2.079958
DNS,41.98,-95.38
DNT,33.72,-117.9
DNU,-6.15,146.7
DNV,40.2,-87.58
DNX,12.0,35.5
DNZ,37.785567,29.701297
DOA,-14.37,49.52
DOB,-5.767,134.2
DOC,57.88,-4.083
DOD,-6.170440196990967,35.752601623535156
DOE,4.017,-55.48
DOF,55.2,-132.3
DOG,19.153900146499996,30.430099487299998
DOH,25.261125,51.565056
DOI,-10.72,150.7
DOK,48.07360076904297,37.73970031738281
DOL,49.3652992249,0.154305994511
DOM,15.54699993133545,-61.29999923706055
DON,17.63,-89.67
DOO,-9.5,147.8
DOP,28.985700607299805,82.81909942626953
DOR,14.03,-0.03333
DOS,-5.55,155.0
DOU,-22.2019,-54.926601
DOV,39.12950134,-75.46600342
DOX,-29.25,114.9
DOY,37.55,118.5
DPA,41.90779877,-88.24859619
DPE,49.93,1.083
DPG,40.2,-112.9
DPK,40.77,-73.33
DPL,8.60198349877,123.341875076
DPO,-41.1697006226,146.429992676
DPS,-8.7481698989868,115.16699981689
DPU,-5.833,145.8
DQH,31.476699829101562,-82.8604965209961
DRA,36.6194,-116.032997
DRB,-17.3700008392334,123.66100311279297
DRC,-17.97,20.78
DRD,-16.52,142.4
DRE,46.02,-83.75
DRF,60.58,-152.2
DRG,66.0696029663,-162.76600647
DRH,-3.25,138.6
DRI,30.8316993713,-93.33989715579999
DRJ,4.11666679382,-54.666671752899994
DRK,8.71889019012,-83.6417007446
DRM,46.0093002319,-83.74389648440001
DRN,-28.5,148.3
DRO,37.1515007019,-107.753997803
DRR,-25.6,140.3
DRS,51.1328010559082,13.767200469970703
DRT,29.3742008209,-100.927001953
DRU,46.62,-113.2
DRV,5.1561,73.1302
DRW,-12.41469955444336,130.8769989013672
DRY,-15.67,126.4
DSA,53.48,-1.004
DSC,5.833,10.08
DSD,16.296899795532227,-61.08440017700195
DSE,11.082500457763672,39.71139907836914
DSG,12.07,124.6
DSI,30.38,-86.53
DSK,31.909400939941406,70.89659881591797
DSL,8.0,-10.8
DSM,41.534000396728516,-93.66310119628906
DSN,39.85,110.0
DSO,39.745201,127.473999
DSV,43.05,-76.15
DTA,39.3805999756,-112.508003235
DTB,2.25973,98.991898
DTD,0.8106,114.5306
DTE,14.13,123.0
DTH,36.5,-117.0
DTI,-18.232000351,-43.650398254399995
DTL,46.83,-95.88
DTM,51.51829910279999,7.61223983765
DTN,32.54,-93.75
DTR,47.6,-122.3
DTS,30.40010071,-86.47149658
DTT,42.25,-83.38
DTW,42.212398529052734,-83.35340118408203
DU9,42.872200012200004,-79.5958023071
DUA,44.63,-91.97
DUB,53.42129898071289,-6.2700700759887695
DUC,34.47090149,-97.9598999
DUD,-45.9281005859375,170.197998046875
DUE,-7.400889873504639,20.818500518798828
DUF,36.25,-75.78
DUG,31.4689998627,-109.603996277
DUH,-33.6069984436,22.188999176
DUI,51.47,6.75
DUJ,41.17829895,-78.8986969
DUK,-28.37,32.23
DUM,1.60919,101.433998
DUN,76.57,-68.8
DUQ,48.78,-123.7
DUR,-29.6144444444,31.1197222222
DUS,51.28950119018555,6.766779899597168
DUT,53.900100708,-166.544006348
DVA,45.88,22.92
DVK,64.51,-110.3
DVL,48.11420059,-98.90879822
DVN,41.53,-90.68
DVO,7.1255202293396,125.64600372314453
DVP,-24.17,141.1
DVR,-13.75,130.7
DVT,33.6883010864,-112.083000183
DVX,39.13,-75.47
DWA,38.57910156,-121.8570023
DWB,-16.1016904207,45.358836650799994
DWC,24.896356,55.161389
DWD,24.5,44.400001525878906
DWF,39.59,-84.22
DWH,30.0618000031,-95.55280303960001
DWN,35.4,-97.62
DWS,28.53,-81.35
DXA,44.98,6.15
DXB,25.2527999878,55.3643989563
DXD,-15.17,143.7
DXR,41.371498107899995,-73.48220062259999
DYA,-22.62220001220703,148.36399841308594
DYG,29.1028,110.443001
DYL,40.3330001831,-75.1222991943
DYM,-23.87,141.3
DYR,64.73490142822266,177.74099731445312
DYS,32.4207992554,-99.854598999
DYU,38.543300628699996,68.8249969482
DYW,-16.27,133.4
DZA,-12.804699897766113,45.28110122680664
DZI,9.6,-73.45
DZN,47.708333,67.733333
DZO,-33.358867,-56.499172
DZU,29.7,105.8
E25,33.96889877,-112.7990036
E38,30.384199142499998,-103.683998108
E63,32.95809937,-112.6780014
EAA,64.77639771,-141.151001
EAB,15.3,43.97
EAE,-17.0902996063,168.343002319
EAL,8.717,167.7
EAM,17.611400604248047,44.4192008972168
EAN,42.05,-104.9
EAP,47.6,7.533
EAR,40.73,-99.02
EAS,43.35649871826172,-1.7906099557876587
EAT,47.3988990784,-120.207000732
EAU,44.86579895019531,-91.48429870605469
EBA,42.7603,10.2394
EBB,0.042385999113321304,32.44350051879883
EBD,13.153200149536133,30.23270034790039
EBE,51.211666107177734,4.5808329582214355
EBG,7.59647,-74.8089
EBJ,55.525901794433594,8.553400039672852
EBL,36.23759841918945,43.963199615478516
EBM,31.704299926757812,9.254619598388672
EBN,9.333,166.8
EBO,4.667,168.7
EBR,30.53,-91.15
EBS,42.47,-93.8
EBU,45.54059982299805,4.296390056610107
EBW,2.85,11.18
ECA,44.312801,-83.422302
ECG,36.260581,-76.174572
ECH,-36.15719985961914,144.76199340820312
ECN,35.15,33.5
ECO,-1.617,-73.23
ECP,30.357106,-85.795414
ECR,2.5,-78.0
ECS,43.88,-104.3
ECV,40.370700836199994,-3.7851400375399997
EDA,55.95,-133.7
EDB,18.25,31.25
EDD,-25.25,133.2
EDE,36.07,-76.65
EDF,61.250999450683594,-149.8070068359375
EDG,39.39,-76.29
EDI,55.95000076293945,-3.372499942779541
EDK,37.77,-96.87
EDL,0.4044579863548279,35.23889923095703
EDM,46.701900482177734,-1.3786300420761108
EDO,39.554599762,27.0137996674
EDQ,14.13,-88.42
EDR,-14.896451,141.60908
EDW,34.905399,-117.884003
EED,34.7663002014,-114.623001099
EEK,60.21367264,-162.0438843
EEN,42.898397,-72.270781
EET,33.17699814,-86.78279877
EFB,58.0,-135.7
EFD,29.607299804700002,-95.1587982178
EFG,-9.15,147.7
EFK,44.88,-72.23
EFL,38.12009811401367,20.500499725341797
EFO,42.68,-94.2
EFW,42.02,-94.38
EGA,-6.917,146.1
EGC,44.82529830932617,0.5186110138893127
EGE,39.64260101,-106.9179993
EGI,30.65040016,-86.52290344
EGL,5.283,39.7
EGM,-8.578889846801758,157.87600708007812
EGN,13.48,22.45
EGO,50.643798828125,36.5900993347168
EGP,28.87,-100.5
EGR,31.068559,34.129629
EGS,65.2833023071289,-14.401399612426758
EGT,37.32360076904297,-97.38829803466797
EGV,45.932300567599995,-89.26830291750001
EGX,58.1855010986,-157.375
EHA,37.000702,-101.879997
EHD,34.98,-122.0
EHL,-41.9431991577,-71.5323028564
EHM,58.646400451699996,-162.06300354
EHT,41.77,-72.65
EIA,-8.2,147.9
EIB,50.992797,10.472711
EIE,58.47420120239258,92.11250305175781
EIH,-18.5,144.1
EIK,63.2,38.21
EIL,64.66570282,-147.102005
EIN,51.450139,5.374528
EIS,18.444799423217773,-64.54299926757812
EIY,30.63,35.17
EJA,7.02433,-73.8068
EJH,26.19860076904297,36.47639846801758
EJT,6.083,172.0
EKA,40.803398132299996,-124.112998962
EKB,51.58,75.22
EKD,-21.03,135.3
EKE,6.667,-60.85
EKI,41.7193984985,-86.00319671630001
EKN,38.889444,-79.857139
EKO,40.82490158081055,-115.79199981689453
EKS,49.18,142.1
EKT,59.351078,16.7084
EKX,37.7,-85.87
EKY,33.31290054,-86.92590332
ELA,29.58,-96.33
ELB,9.05,-73.97
ELC,-12.019399642899998,135.570999146
ELD,33.22100067138672,-92.81330108642578
ELE,8.117,-77.72
ELF,13.614899635314941,25.324600219726562
ELG,30.571300506591797,2.8595900535583496
ELH,25.474899292,-76.6835021973
ELI,64.61470032,-162.2720032
ELJ,2.0,-74.13
ELK,35.4,-99.42
ELL,-23.67,27.62
ELM,42.1599006652832,-76.8916015625
ELN,47.03,-120.5
ELO,-26.4,-54.63
ELP,31.80719948,-106.3779984
ELQ,26.302799224853516,43.77439880371094
ELR,-3.817,140.1
ELS,-33.0355987549,27.825899124099998
ELT,28.208999633789062,33.64550018310547
ELU,33.5113983154,6.77679014206
ELV,58.195201873799995,-136.347000122
ELW,60.88,-146.6
ELX,8.883,-64.27
ELY,39.29970169,-114.8420029
ELZ,42.12,-77.93
EMA,52.8311004639,-1.32806003094
EMB,37.62,-122.4
EMD,-23.5674991608,148.179000854
EME,53.391109466552734,7.227499961853027
EMG,-28.73,31.9
EMI,-1.65,150.0
EMK,62.78609848,-164.4909973
EML,47.092444,8.305184
EMM,41.85,-110.6
EMN,16.622,-7.316567
EMO,-8.733,147.8
EMP,38.3320999146,-96.19120025630001
EMS,-9.367,148.5
EMT,34.086101532,-118.035003662
EMV,36.6869010925293,-77.48280334472656
EMX,-42.07,-71.15
EMY,28.08,30.73
ENA,60.573111,-151.245
ENB,-30.08,115.0
ENC,48.692069,6.230458
END,36.339167,-97.9165
ENE,-8.833,121.7
ENF,68.362586,23.424322
ENH,30.28,109.3
ENI,10.33,123.8
ENJ,14.1,-90.83
ENK,54.398889,-7.651667
ENL,38.52,-89.08
ENN,64.55,-149.1
ENO,-34.56065,-58.789564
ENQ,14.38,-87.62
ENS,52.27,6.874167
ENT,11.33,162.3
ENU,6.474272,7.561961
ENV,40.73,-114.0
ENW,42.595708,-87.927803
ENY,36.0,109.3
ENZ,-37.02,174.8
EOH,6.220549,-75.590582
EOI,59.19060134887695,-2.7722198963165283
EOK,40.459899902299995,-91.4284973145
EOR,6.733,-61.58
EOS,36.87,-94.37
EOZ,7.167,-69.53
EPA,-34.61,-58.61
EPG,40.87,-96.13
EPH,47.3,-119.5
EPI,-16.75,168.3
EPK,34.67,32.9
EPL,48.32500076293945,6.069980144500732
EPM,44.910099029541016,-67.01270294189453
EPN,1.367,17.48
EPR,-33.684399,121.822998
EPS,19.198600769,-69.42980194089999
EPT,-5.033,141.7
EPU,58.41899871826172,24.47279930114746
EQS,-42.908000946,-71.139503479
ERA,10.62,47.4
ERB,-26.27,132.2
ERC,39.7102012634,39.527000427199994
ERD,46.814998626708984,36.75809860229492
ERE,-6.633,144.0
ERF,50.979801177978516,10.958100318908691
ERG,61.2750015259,108.029998779
ERH,31.9475002289,-4.39833021164
ERI,42.0831270134,-80.1738667488
ERL,43.4225,112.096667
ERM,-27.66189956665039,-52.2682991027832
ERN,-6.667,-69.83
ERO,52.5,-1.5
ERR,44.78,-71.15
ERS,-22.612199783325195,17.080400466918945
ERT,48.5,101.4
ERU,-8.417,147.1
ERV,29.9766998291,-99.08570098879999
ERY,46.31119918823242,-85.4572982788086
ERZ,39.9565010071,41.17020034789999
ESA,-9.9,151.0
ESB,40.128101348899996,32.995098114
ESC,45.7226982117,-87.0936965942
ESD,48.7081985474,-122.910003662
ESE,31.795299530029297,-116.60299682617188
ESF,31.3948993683,-92.2957992554
ESG,-22.03,-60.62
ESH,50.835601806640625,-0.29722198843955994
ESI,-14.93,-42.83
ESK,39.7840995789,30.582099914599997
ESL,46.3739013671875,44.33089828491211
ESM,0.9785190224647522,-79.62660217285156
ESN,38.8,-76.07
ESO,36.1,-106.0
ESP,41.0,-75.18
ESR,-26.311100006103516,-69.76519775390625
ESS,51.40230178833008,6.9373297691345215
EST,43.4,-94.83
ESU,31.3974990845,-9.6816701889
ESW,47.23,-121.2
ESX,59.34510040283203,17.74049949645996
ETB,43.42,-88.18
ETD,-28.72,138.6
ETE,12.93,36.17
ETH,29.56130027770996,34.96009826660156
ETN,32.42,-98.8
ETR,-3.441986,-79.996957
ETS,31.32,-85.85
ETZ,48.9821014404,6.25131988525
EUA,-21.378299713100002,-174.957992554
EUC,-31.72,128.9
EUE,39.52,-116.0
EUF,31.9512996674,-85.1288986206
EUG,44.12459945678711,-123.21199798583984
EUM,54.079444885253906,9.941389083862305
EUN,27.151667,-13.219167
EUO,11.13,123.9
EUQ,10.78,121.9
EUX,17.49650001525879,-62.979400634765625
EVA,30.35,-94.07
EVD,-18.08,134.9
EVE,68.4913,16.678108
EVG,62.04779815673828,14.422900199890137
EVH,-29.1,153.4
EVM,47.43,-92.5
EVN,40.15,44.4
EVV,38.0369987488,-87.5324020386
EVW,41.27479935,-111.0350037
EVX,49.028669,1.219864
EWB,41.67610168457031,-70.95690155029297
EWD,20.504299163800003,45.199600219699995
EWE,-5.483,138.1
EWI,-3.933,136.4
EWK,38.058200836199994,-97.2744979858
EWN,35.072972,-77.042944
EWO,-0.8833,14.8
EWR,40.692501068115234,-74.168701171875
EWY,51.42,-0.2
EXI,58.42,-135.4
EXM,-22.38,114.1
EXT,50.73440170288086,-3.4138898849487305
EYK,63.686901092499994,66.698600769
EYL,15.13,-10.57
EYP,5.31911,-72.384
EYR,38.98,-119.2
EYS,3.25,35.97
EYW,24.556100845336914,-81.75959777832031
EZE,-34.8222,-58.5358
EZS,38.6068992615,39.2914009094
EZV,63.92,65.02
FAA,10.0354995728,-10.7698001862
FAB,51.2757987976,-0.776332974434
FAC,-16.67,-145.3
FAE,62.0635986328125,-7.277219772338867
FAF,37.132499694799996,-76.60880279540001
FAG,63.88,-16.65
FAH,32.367000579833984,62.18299865722656
FAI,64.81510162,-147.8560028
FAJ,18.308900833129883,-65.66190338134766
FAK,57.52,-135.2
FAL,26.58,-99.13
FAM,37.67,-90.23
FAN,58.099486,6.62605
FAO,37.0144004822,-7.96590995789
FAQ,-4.617,142.0
FAR,46.92070007324219,-96.81580352783203
FAS,64.92,-14.07
FAT,36.77619934082031,-119.71800231933594
FAU,22.35,56.49
FAV,-16.054100036621094,-145.65699768066406
FAY,34.9911994934082,-78.88030242919922
FAZ,0.4819,0.8942
FBA,-2.5326099395800004,-66.0831985474
FBD,37.121101,70.518097
FBE,-26.059200286865234,-53.063499450683594
FBG,35.13180161,-78.93669891
FBK,64.83750153,-147.6139984
FBL,44.33,-93.32
FBM,-11.5913000107,27.5308990479
FBR,41.3918991089,-110.406997681
FBS,48.54,-123.0
FBY,40.13,-97.18
FCA,48.31050109863281,-114.25599670410156
FCB,-28.823119,27.9089
FCH,36.73,-119.8
FCI,37.40650177,-77.52500153
FCM,44.8272018433,-93.45709991460001
FCN,53.87,8.7
FCO,41.8002778,12.2388889
FCS,38.67839813,-104.7570038
FCT,46.67,-120.5
FCY,34.95,-90.77
FDE,61.4,5.8
FDF,14.590999603271484,-61.00320053100586
FDH,47.671298980699994,9.51148986816
FDK,39.42,-77.42
FDR,34.35,-98.98
FDU,-3.3113200664520264,17.38170051574707
FDW,34.31549835205078,-81.10880279541016
FDY,41.013500213600004,-83.66870117190001
FEA,60.58,-0.9667
FEB,29.23,81.22
FEC,-12.2,-38.91
FEG,40.358798980699994,71.7450027466
FEJ,-8.15,-70.35
FEK,9.6,-5.2
FEL,48.2055549621582,11.26694393157959
FEN,-3.854928,-32.423336
FEP,42.27,-89.58
FER,69.0,-105.0
FES,36.47,-6.183
FET,41.44910049,-96.52020264
FEW,41.13,-104.9
FEZ,33.9272994995,-4.977960109709999
FFA,36.0181999207,-75.67130279540001
FFC,33.3572998046875,-84.5718002319336
FFD,51.6822013855,-1.7900300025900002
FFL,40.93,-91.95
FFM,46.28,-96.17
FFO,39.8260993958,-84.0483016968
FFT,38.18249893,-84.90470123
FFU,-43.2,-71.82
FFZ,33.4608001709,-111.727996826
FGD,22.5,-12.67
FGI,-13.848699569699999,-171.740005493
FGL,-43.4,170.0
FGR,36.53,-4.633
FGU,-15.0,-142.0
FHU,31.588499069213867,-110.34400177001953
FHZ,-16.0,-140.0
FIC,55.77,-131.5
FID,41.27,-72.03
FIE,59.53580093383789,-1.628059983253479
FIG,10.350600242615,-13.569199562073
FIH,-4.38574981689,15.4446001053
FIK,-25.58,134.6
FIL,38.97,-112.3
FIN,-6.617,147.9
FIT,42.554100036621094,-71.75900268554688
FIV,57.27,-133.6
FIZ,-18.181900024414062,125.55899810791016
FJR,25.112199783325195,56.32400131225586
FKB,48.7793998718,8.08049964905
FKH,52.83,0.85
FKI,0.481638997793,25.3379993439
FKJ,36.142847,136.223922
FKL,41.3778991699,-79.8603973389
FKN,36.68,-76.92
FKQ,-2.9201900959014893,132.26699829101562
FKS,37.22740173339844,140.43099975585938
FLA,1.58919,-75.5644
FLB,-6.8463897705078125,-43.077301025390625
FLC,-34.98,150.6
FLD,43.7711982727,-88.48840332030001
FLE,37.18,-77.51
FLF,54.77333450317383,9.378889083862305
FLG,35.13850021,-111.6709976
FLH,58.5,-3.0
FLI,65.98,-23.7
FLJ,60.02,-148.0
FLL,26.072599411010742,-80.15270233154297
FLM,-22.35,-60.03
FLN,-27.670489,-48.547181
FLO,34.18539810180664,-79.7238998413086
FLP,36.3,-92.58
FLR,43.810001,11.2051
FLS,-40.0917015076,147.992996216
FLT,62.45,-158.0
FLU,40.78,-73.83
FLV,39.3683013916,-94.9147033691
FLW,39.455299377441406,-31.131399154663086
FLX,39.47,-118.8
FLY,-35.65,145.6
FMA,-26.2127,-58.2281
FMC,65.92,-149.8
FME,39.08539962769999,-76.7593994141
FMG,10.42,-85.78
FMH,41.57,-70.63
FMI,-5.8755598068237305,29.25
FMM,47.988800048799995,10.2395000458
FMN,36.75,-108.2
FMO,52.134601593,7.68483018875
FMS,40.65,-91.32
FMU,43.98,-124.1
FMY,26.58659935,-81.86329650879999
FNA,8.616444,-13.195489
FNB,53.602167,13.306
FNC,32.697889,-16.774453
FNE,-8.6,147.2
FNG,12.07,0.35
FNH,9.667,37.35
FNI,43.757444,4.416347
FNJ,39.224061,125.67015
FNK,69.5,-147.6
FNL,40.58,-105.1
FNR,58.25,-134.9
FNT,42.965425,-83.743631
FOA,60.15,-1.15
FOB,39.43,-123.8
FOC,25.935100555419922,119.66300201416016
FOD,42.55149841,-94.19259644
FOE,38.950901031499995,-95.66359710690001
FOG,41.432899,15.535
FOK,40.8437004089,-72.6317977905
FOM,5.636919975280762,10.750800132751465
FON,10.4,-84.48
FOO,-0.9333,134.9
FOP,33.61,-82.14
FOR,-3.776279926300049,-38.53260040283203
FOS,-30.838056,128.115
FOT,-32.18,152.5
FOU,-1.2,10.78
FOX,64.85,-147.8
FOY,8.367,-10.22
FPO,26.5587005615,-78.695602417
FPR,27.495056,-80.368278
FPY,30.12,-83.58
FQQ,48.13,16.53
FRA,50.0333333,8.5705556
FRB,-33.363602,147.934998
FRC,-20.592199325561523,-47.38290023803711
FRD,48.5219993591,-123.024002075
FRE,-8.1075,159.576996
FRF,50.03,8.567
FRG,40.728781,-73.413408
FRH,38.55,-86.62
FRI,39.05530167,-96.76450348
FRJ,43.4175,6.7357
FRK,-4.583,55.95
FRL,44.194801,12.0701
FRM,43.65,-94.42
FRN,61.26,-149.7
FRO,61.583599090576,5.0247201919556
FRP,27.49510002,-80.36830139
FRQ,-5.42,141.7
FRR,38.92,-78.18
FRS,16.913799285899998,-89.86640167239999
FRT,-41.12,-73.05
FRU,43.0612983704,74.4776000977
FRW,-21.15959930419922,27.47450065612793
FRY,44.02,-70.98
FRZ,51.13,9.28
FSC,41.5005989074707,9.097780227661133
FSD,43.582000732400004,-96.741897583
FSI,34.64979935,-98.40219879
FSK,37.8,-94.77
FSL,-18.2,125.8
FSM,35.33660125732422,-94.36740112304688
FSN,41.56,-88.66
FSP,46.762901306152344,-56.173099517822266
FSS,57.6493988037,-3.56064009666
FST,30.9157009125,-102.916000366
FSU,34.47,-104.3
FTA,-19.516399383499998,170.231994629
FTE,-50.2803,-72.053101
FTG,39.785301208496094,-104.54299926757812
FTI,-14.2172,-169.425003
FTK,37.907100677500004,-85.9720993042
FTL,61.87,-162.0
FTU,-25.03809928894043,46.95610046386719
FTW,32.8198013306,-97.36239624019998
FTX,-0.5313500165939331,15.95009994506836
FTY,33.7790985107,-84.5214004517
FUB,-6.15,150.7
FUD,44.38,131.1
FUE,28.452699661254883,-13.863800048828125
FUG,32.882157,115.734364
FUJ,32.66630172729492,128.83299255371094
FUK,33.585899353027344,130.4510040283203
FUL,33.8720016479,-117.980003357
FUM,-6.383,142.4
FUN,-8.517,179.2
FUO,23.13,113.3
FUT,-14.3114004135,-178.065994263
FVL,-18.28,128.4
FVR,-15.18,127.8
FWA,40.97850037,-85.19509888
FWH,32.85,-96.85
FWL,62.52,-153.9
FWM,56.82,-5.117
FXE,26.1972999573,-80.1707000732
FXM,70.22,-146.0
FXO,-14.815,36.529999
FXY,43.27,-93.65
FYJ,48.199494,134.366447
FYM,35.15,-86.58
FYN,45.0,90.0
FYT,17.91710090637207,19.111099243164062
FYU,66.57150268554688,-145.25
FYV,36.00510025024414,-94.17009735107422
FZG,31.683700561523438,-83.27050018310547
FZI,41.19079971,-83.39450073
FZO,51.5194015503,-2.59083008766
GAA,9.15,-74.23
GAB,38.87,-117.9
GAC,14.5,-88.53
GAD,33.972599,-86.088996
GAE,33.87689971923828,10.103300094604492
GAF,34.422000885009766,8.822500228881836
GAG,36.32,-99.75
GAH,-25.61440086364746,151.61900329589844
GAI,39.168300628699996,-77.1660003662
GAJ,38.411899566699994,140.371002197
GAK,62.3,-145.3
GAL,64.73619843,-156.9369965
GAM,63.76679992675781,-171.73300170898438
GAN,0.5,73.27
GAO,20.08530044555664,-75.1583023071289
GAP,-6.05,146.0
GAQ,16.24839973449707,-0.005456000100821257
GAR,-7.87,147.1
GAS,-0.4635080099105835,39.64830017089844
GAT,44.45,6.02
GAU,26.10610008239746,91.58589935302734
GAV,-0.45,130.9
GAW,22.17,94.13
GAX,-2.77,9.98
GAY,24.744300842285156,84.95120239257812
GAZ,-9.23,153.0
GBA,-16.05,167.4
GBB,40.826667,47.7125
GBC,-6.1,141.7
GBD,38.35,-98.87
GBE,-24.555200576782227,25.91819953918457
GBF,-6.58,144.7
GBG,40.937999725299996,-90.431098938
GBH,68.47,-149.5
GBI,26.67,-78.33
GBJ,15.86870002746582,-61.27000045776367
GBK,7.767000198364258,-12.383000373840332
GBL,-11.67,133.4
GBM,3.33,42.18
GBN,41.7,15.73
GBO,39.18,-76.68
GBP,-16.55,143.7
GBQ,26.25,50.65
GBR,42.2,-73.37
GBS,-36.17,175.4
GBT,36.909400939899996,54.4012985229
GBU,14.92,35.88
GBV,-16.33,126.4
GBZ,-36.24140167236328,175.4720001220703
GCA,2.28,-74.95
GCC,44.348899841299996,-105.539001465
GCD,47.92,-119.1
GCH,30.2,50.78
GCI,49.435001373291016,-2.6019699573516846
GCJ,-25.986299514799995,28.1401004791
GCK,37.9275016785,-100.723999023
GCM,19.292800903299998,-81.3576965332
GCN,35.95,-112.2
GCV,-29.94,-50.99
GCW,35.99,-113.8
GCY,36.18,-82.82
GDA,9.33,21.18
GDC,34.85,-82.35
GDD,-18.83,128.5
GDE,5.93513011932,43.5786018372
GDG,53.47,125.8
GDH,59.75,-158.9
GDI,9.73,21.58
GDJ,-6.73,23.95
GDL,20.521799087524414,-103.31099700927734
GDM,42.57,-72.0
GDN,54.4,18.6
GDO,7.23,-70.8
GDP,-6.77,-43.57
GDQ,12.51990032196045,37.433998107910156
GDT,21.444499969482422,-71.14230346679688
GDV,47.13869858,-104.8069992
GDW,43.9706001282,-84.47499847410002
GDX,59.9109992980957,150.72000122070312
GDZ,44.5820926295,38.0124807358
GEA,-22.25830078125,166.47300720214844
GEB,-0.08,129.3
GEC,35.23,33.72
GED,38.68920135,-75.35890198
GEE,-41.07,146.8
GEF,-7.57,156.6
GEG,47.61989974975586,-117.53399658203125
GEI,-4.5,154.2
GEK,62.98,-156.5
GEL,-28.281700134277344,-54.16910171508789
GEN,37.38,-4.77
GEO,6.498549938201904,-58.25410079956055
GER,21.834699630737305,-82.78379821777344
GES,6.05800008774,125.096000671
GET,-28.796101,114.707001
GEU,33.52690124511719,-112.29499816894531
GEV,67.13240051269531,20.814599990844727
GEW,-9.3,148.5
GEX,-38.224998474121094,144.33299255371094
GEY,44.52,-108.1
GFA,47.5,-111.2
GFB,59.05,-160.3
GFD,39.78,-85.77
GFE,-33.9,148.2
GFF,-34.2508010864,146.067001343
GFK,47.949299,-97.176102
GFL,43.3412017822,-73.6102981567
GFN,-29.67,153.0
GFO,6.374770164489746,-58.638099670410156
GFR,48.88309860229492,-1.564170002937317
GFY,-19.60219955444336,18.122699737548828
GGC,-14.12,21.43
GGD,-18.7,139.3
GGE,33.3116989136,-79.3196029663
GGG,32.38399887084961,-94.71150207519531
GGL,8.33,-77.08
GGN,6.13,-5.93
GGO,6.55,-7.48
GGR,8.42,48.48
GGS,-48.7831001282,-70.1500015259
GGT,23.5625991821,-75.8779983521
GGW,48.212501525878906,-106.61499786376953
GHA,32.38410186767578,3.794110059738159
GHB,25.2847003937,-76.3310012817
GHC,25.75,-77.85
GHD,9.4,39.27
GHE,8.08,-78.33
GHF,49.648101806599996,9.966489791870002
GHG,42.09830093383789,-70.67220306396484
GHK,32.12,34.78
GHM,35.78,-87.47
GHN,30.47,106.7
GHT,25.1455993652,10.142600059500001
GHU,-33.0103,-58.6131
GIB,36.1511993408,-5.3496599197400005
GIC,-9.23278045654,142.218002319
GID,-3.42,29.92
GIF,28.06290054,-81.75330353
GIG,-22.8099994659,-43.2505569458
GII,11.4,-9.18
GIL,35.918800354003906,74.33360290527344
GIM,-0.02,11.4
GIR,4.28,-74.8
GIS,-38.663299560546875,177.97799682617188
GIT,-2.87,32.17
GIU,7.956669807430001,80.7285003662
GIY,-22.37,29.98
GIZ,16.901100158691406,42.58580017089844
GJA,16.4454,-85.906601
GJL,36.7951011658,5.87361001968
GJM,-10.83,-65.33
GJR,65.99530029296875,-21.326900482177734
GJT,39.1223983765,-108.527000427
GKA,-6.081689834590001,145.391998291
GKE,50.9608,6.04242
GKH,28.0,84.67
GKK,0.7324,73.4336
GKL,-23.1833000183,150.942001343
GKN,62.17,-145.5
GKO,-0.08,11.47
GKT,35.85,-82.03
GKY,32.66389846801758,-97.09429931640625
GLA,55.8718986511,-4.43306016922
GLB,33.35,-110.7
GLC,6.97,46.42
GLD,39.37060165,-101.6989975
GLE,33.62,-97.13
GLF,8.654009819030762,-83.18219757080078
GLG,-24.77,139.6
GLH,33.4828987121582,-90.98560333251953
GLI,-29.674999237060547,151.68899536132812
GLJ,2.1464,-75.6944
GLK,6.78082990646,47.45470047
GLL,60.78,9.05
GLM,-22.28,138.3
GLN,29.02,-10.07
GLO,51.89419937133789,-2.167220115661621
GLP,-5.283,141.5
GLQ,62.12,-145.6
GLR,45.02,-84.7
GLS,29.265300750732422,-94.86039733886719
GLT,-23.869699,151.223007
GLU,26.88456,90.46412
GLV,64.5504989624,-163.007003784
GLW,37.03,-85.95
GLX,-2.183,127.8
GLY,-20.08,119.7
GLZ,51.57,4.917
GMA,3.2353699207299997,19.771299362199997
GMB,8.12876033782959,34.5630989074707
GMC,3.633,-71.17
GME,52.527000427246094,31.016700744628906
GMI,-6.3,150.3
GMJ,36.60680008,-94.73860168
GML,50.60350036621094,30.1919002532959
GMM,-1.933,15.87
GMN,-42.47,171.2
GMP,37.5583000183,126.791000366
GMR,-23.07990074157715,-134.88999938964844
GMS,-2.133,-44.6
GMT,65.4,-161.3
GMU,34.847900390599996,-82.34999847410002
GMV,37.0,-110.2
GMY,52.35,14.55
GMZ,28.029600143432617,-17.214599609375
GNA,53.601967,24.053758
GNB,45.362944,5.329375
GND,12.004247,-61.786192
GNE,51.05,3.717
GNF,39.94,-120.9
GNG,42.92,-114.8
GNI,22.673853,121.466481
GNM,-14.22,-42.78
GNN,7.15,40.72
GNR,-39.03,-67.58
GNS,1.166381,97.704681
GNT,35.15,-107.9
GNU,59.12,-161.5
GNV,29.690056,-82.271778
GNY,37.44,38.88
GNZ,-21.7,21.67
GOA,44.4133,8.8375
GOB,7.1160634,40.0463033
GOC,-8.417,147.7
GOE,-5.383,151.9
GOF,31.36,-100.5
GOG,-22.5,18.97
GOH,64.19090271,-51.6781005859
GOI,15.3808002472,73.8313980103
GOJ,56.230098724365,43.784000396729
GOK,35.88,-97.42
GOL,42.42,-124.4
GOM,-1.6708099842071533,29.238500595092773
GON,41.330056,-72.045139
GOO,-28.521389,150.320278
GOP,26.739700317399997,83.4496994019
GOQ,36.4006,94.786102
GOR,8.1614,35.5529
GOS,-33.43,151.4
GOT,57.662799835205,12.279800415039
GOU,9.33588981628418,13.370100021362305
GOV,-12.269399642899998,136.817993164
GOY,7.33776,81.62594
GOZ,43.15140151977539,25.712900161743164
GPA,38.1511,21.4256
GPB,-25.3875007629,-51.520198822
GPI,2.57013,-77.8986
GPL,10.22,-83.77
GPN,-11.4,130.4
GPO,-35.696183,-63.758286
GPS,-0.45375800132751465,-90.26589965820312
GPT,30.40730094909668,-89.07009887695312
GPZ,47.21110153,-93.50980377
GQJ,55.437222,-5.686389
GQQ,40.7533988953,-82.7238006592
GRA,8.2,-73.78
GRB,44.48509979248047,-88.12960052490234
GRC,4.6,-8.167
GRD,34.25,-82.15
GRE,38.88,-89.42
GRF,47.07920074,-122.5810013
GRG,33.62,69.12
GRH,-10.32,150.7
GRI,40.967498779296875,-98.30960083007812
GRJ,-34.0055999756,22.378900528
GRK,31.067199707,-97.82890319820001
GRL,-7.95,147.2
GRM,47.8382987976,-90.38289642330001
GRN,42.8,-102.2
GRO,41.901000977,2.7605500221
GRP,-11.73960018157959,-49.132198333740234
GRQ,53.1197013855,6.57944011688
GRR,42.88079834,-85.52279663
GRS,42.759701,11.0719
GRT,32.57,74.08
GRU,-23.435556411743164,-46.47305679321289
GRV,43.298099517822266,45.78409957885742
GRW,39.092201232910156,-28.029800415039062
GRX,37.18870162963867,-3.777359962463379
GRY,66.5458,-18.0173
GRZ,46.9911003112793,15.439599990844727
GSA,5.333,117.2
GSB,35.33940125,-77.96060181
GSC,-25.05,115.2
GSE,57.77470016479492,11.870400428771973
GSH,41.58,-85.83
GSI,38.1,-5.817
GSL,35.85,-111.5
GSM,26.95,56.28
GSN,-31.87,138.2
GSO,36.097801208496094,-79.93730163574219
GSP,34.8956985474,-82.2189025879
GSQ,22.5856990814209,28.71660041809082
GSR,9.517,49.08
GSS,-25.12,30.8
GST,58.4253006,-135.7070007
GSU,14.13,35.32
GSY,51.33,0.03333
GTA,-8.75,158.2
GTB,44.05559921,-75.71949768
GTC,26.78,-77.33
GTE,-13.975000381500001,136.460006714
GTF,47.48199844,-111.3710022
GTG,45.78,-92.68
GTI,54.3833312988,13.3255558014
GTK,2.6,102.9
GTN,-43.9,170.1
GTO,0.63711899519,122.849998474
GTP,42.51,-123.4
GTR,33.450298309299995,-88.5914001465
GTS,-26.97,133.6
GTT,-18.42,143.8
GTU,30.678800582885742,-97.67939758300781
GTW,49.0,17.67
GTY,39.83,-77.23
GUA,14.58329963684082,-90.52749633789062
GUB,28.026100158691406,-114.02400207519531
GUC,38.53390121,-106.9329987
GUD,16.35,-3.6
GUE,-3.583,141.6
GUF,30.17,-87.58
GUG,-8.1,146.9
GUH,-30.96109962463379,150.25100708007812
GUI,10.574077606200001,-62.3126678467
GUJ,-22.82,-45.22
GUL,-34.810298919677734,149.7259979248047
GUM,13.4834003448,144.796005249
GUN,32.3,-86.39
GUO,15.08,-86.03
GUP,35.511100769,-108.789001465
GUQ,9.026944160461426,-69.7551498413086
GUR,-10.3114995956,150.333999634
GUS,40.648101806599996,-86.1520996094
GUT,51.922798,8.30633
GUU,64.97,-23.17
GUV,-6.283,142.4
GUW,47.12189865112305,51.8213996887207
GUX,24.48,77.32
GUY,36.6851005554,-101.508003235
GUZ,-20.646499633800005,-40.491901397700005
GVA,46.23809814453125,6.108950138092041
GVE,38.15,-78.17
GVI,-3.917,141.2
GVL,34.27259827,-83.8302002
GVN,48.93,140.3
GVP,-15.78,144.6
GVQ,43.03170013,-78.16760254
GVR,-18.89520072937,-41.982200622559
GVT,33.0677986145,-96.0652999878
GVW,38.88,-94.53
GVX,60.593299865722656,16.951400756835938
GWA,17.83,94.5
GWD,25.233299255371094,62.329498291015625
GWE,-19.436399459838867,29.861900329589844
GWL,26.29330062866211,78.22779846191406
GWN,-6.567,146.3
GWO,33.4943008423,-90.0847015381
GWS,39.53,-107.3
GWT,54.9132003784,8.34047031403
GWV,38.35,-81.63
GWW,52.57,13.3
GWY,53.300201416015625,-8.941590309143066
GXF,15.9660997391,48.78829956049999
GXG,-7.754509925842285,15.287699699401855
GXH,34.8105,102.6447
GXQ,-45.594200134277344,-72.1061019897461
GXX,10.35,15.23
GXY,40.4374008179,-104.633003235
GYA,-10.820599556,-65.3455963135
GYD,40.467498779296875,50.04669952392578
GYE,-2.1574199199699997,-79.88359832760001
GYH,34.7583007812,-82.3764038086
GYI,-1.6771999597549438,29.258899688720703
GYL,-16.6369,128.451004
GYM,27.9689998626709,-110.92500305175781
GYN,-16.632033,-49.220686
GYP,-26.282778,152.701944
GYR,33.43,-112.4
GYS,32.3911018371582,105.7020034790039
GYU,36.0788888889,106.216944444
GYY,41.61629867553711,-87.41280364990234
GZA,31.24640083313,34.276100158691
GZI,33.0,68.42
GZM,36.027199,14.2728
GZO,-8.09778022766,156.863998413
GZP,36.2992172241,32.3005981445
GZT,36.9472007751,37.4786987305
GZW,36.23,50.03
HAA,70.486701965332,22.139699935913
HAB,34.12,-88.0
HAC,33.1150016785,139.785995483
HAD,56.69110107421875,12.820199966430664
HAE,36.22,-112.7
HAF,37.513401031499995,-122.500999451
HAG,52.15,4.283
HAH,-11.5337,43.2719
HAI,43.7,-85.48
HAJ,52.461101532,9.685079574580001
HAK,19.934900283813477,110.45899963378906
HAL,-19.97,13.07
HAM,53.630401611328,9.9882297515869
HAN,21.221192,105.807178
HAO,39.43,-84.5
HAP,-19.17,147.7
HAQ,6.744229793548584,73.17050170898438
HAR,40.3,-76.82
HAS,27.437901,41.686298
HAT,-19.72,140.6
HAU,59.34529876709,5.2083601951599
HAV,22.989200592041016,-82.40910339355469
HAW,51.833056,-4.961111
HAX,35.67,-95.37
HAY,65.2,-161.2
HAZ,-4.333,145.2
HBA,-42.836101532,147.509994507
HBB,32.68,-103.2
HBC,57.08,-135.3
HBD,-6.317,142.5
HBE,30.917699813842773,29.696399688720703
HBG,31.26479912,-89.25279999
HBH,57.4,-133.5
HBI,35.65449905,-79.8946991
HBK,34.94,-110.1
HBL,-28.17,26.77
HBN,12.0,106.0
HBO,40.17,-95.95
HBR,34.991317,-99.051313
HBT,27.9009,45.528198
HBX,15.361700058,75.08489990230001
HCA,32.3,-101.4
HCB,55.46,-131.3
HCC,42.25,-73.78
HCJ,24.805,107.6997
HCM,8.0,49.92
HCN,21.93,120.8
HCQ,-18.23390007019043,127.66999816894531
HCR,62.18830108642578,-159.77499389648438
HCS,-26.2,28.13
HCW,34.7,-79.88
HDA,57.07,-135.0
HDB,49.42,8.4
HDD,25.318099975599996,68.3660964966
HDE,40.452099,-99.336502
HDF,53.8787002563,14.152299881
HDG,36.5258333333,114.425555556
HDH,21.5795001984,-158.197006226
HDI,35.22010040283203,-84.8323974609375
HDM,34.86920166015625,48.5525016784668
HDN,40.48,-107.2
HDO,29.35950088501,-99.176696777344
HDR,27.05,56.17
HDS,-24.368600845299998,31.0487003326
HDY,6.93320989609,100.392997742
HEA,34.209999084472656,62.22829818725586
HEB,17.6,95.45
HED,55.8,-160.9
HEE,34.58,-90.67
HEH,20.746999740600586,96.79199981689453
HEI,54.153331756600004,8.90166664124
HEK,50.1716209371,127.308883667
HEL,60.317199707031,24.963300704956
HEM,60.254600524902344,25.042800903320312
HEN,51.58,-0.2333
HEO,-9.133,147.6
HER,35.3396987915,25.180299758900002
HES,45.85,-119.3
HET,40.851398468,111.823997498
HEV,37.27,-6.95
HEW,37.893299,23.726101
HEX,18.4696998596,-69.9693984985
HEY,31.35,-85.65
HEZ,31.62,-91.3
HFA,32.80939865112305,35.04309844970703
HFD,41.736698150635,-72.649398803711
HFE,31.780000686645508,117.2979965209961
HFF,35.04,-79.5
HFN,64.295556,-15.227222
HFS,60.02009963989258,13.578900337219238
HFT,70.679702758789,23.668600082397
HGA,9.518170356750488,44.08879852294922
HGD,-20.815000534057617,144.22500610351562
HGH,30.22949981689453,120.43399810791016
HGL,54.185279846200004,7.91583299637
HGN,19.301667,97.975
HGO,9.38718032837,-5.55666017532
HGR,39.707901,-77.72949982
HGS,8.397130012512207,-13.12909984588623
HGT,36.0,-121.2
HGU,-5.826789855957031,144.29600524902344
HGZ,66.18,-155.7
HHA,28.19,113.2
HHE,40.556447,141.466325
HHH,32.2243995667,-80.6975021362
HHI,21.48349953,-158.0399933
HHN,49.948672,7.263892
HHP,22.33,114.2
HHQ,12.6361999512,99.951499939
HHR,33.922798,-118.334999
HHZ,-17.53,-142.5
HIB,47.38660049,-92.83899689
HIC,-25.82,28.17
HID,-10.586400032,142.289993286
HIE,44.37,-71.55
HIF,41.12403,-111.973086
HIG,-16.43,143.2
HIH,-20.17,149.0
HII,34.571098,-114.358002
HIJ,34.4361000061,132.919006348
HIK,21.31,-157.8
HIL,9.017,38.77
HIM,8.04981,80.9814
HIN,35.25,128.4
HIO,45.540401,-122.949997
HIP,-21.32,138.3
HIR,-9.4280004501343,160.05499267578
HIS,-20.0599,148.8834
HIT,-6.933,143.1
HIW,34.36690139770508,132.41400146484375
HIX,-9.75,-139.0
HJJ,27.4411111111,109.7
HJR,24.817199707,79.91860198970001
HJT,47.08,102.8
HKA,35.93,-89.92
HKB,63.8661994934082,-148.968994140625
HKD,41.7700004578,140.822006226
HKG,22.3089008331,113.915000916
HKK,-42.713600158691406,170.98500061035156
HKN,-5.462169,150.404944
HKP,22.91,-156.7
HKS,32.33,-90.22
HKT,8.11320018768,98.3169021606
HKV,41.97,25.5
HKY,35.74110031,-81.38950348
HLA,-25.938499450699997,27.9260997772
HLB,39.3,-85.22
HLC,39.37,-99.85
HLD,49.2050018311,119.824996948
HLF,57.525798797607,15.823300361633
HLG,40.1749992371,-80.6463012695
HLH,46.195333,122.008333
HLI,36.85,-121.4
HLJ,56.07059860229492,23.5580997467041
HLL,-17.0,128.0
HLM,42.78,-86.12
HLN,46.606806,-111.98275
HLP,-6.266610145568848,106.89099884033203
HLR,31.138700485199998,-97.71450042720001
HLS,-41.0,148.2
HLT,-37.64889907836914,142.06500244140625
HLU,-21.25,165.6
HLV,-15.68,145.2
HLW,-28.02,32.25
HLY,53.32,-4.633
HLZ,-37.8666992188,175.332000732
HMA,61.028499603271484,69.08609771728516
HMB,26.342778,31.742778
HME,31.673000335699996,6.140439987180001
HMG,-23.97,132.7
HMI,42.8414001465,93.6691970825
HMJ,49.35969924926758,26.933399200439453
HMN,32.852519,-106.106525
HMO,29.095899581900003,-111.047996521
HMR,60.81809997558594,11.067999839782715
HMS,58.1,-135.4
HMT,33.75,-117.0
HMV,65.80609893798828,15.082799911499023
HNA,39.428611,141.135278
HNB,38.3,-86.95
HNC,35.22,-75.68
HND,35.552258,139.779694
HNE,61.88,-147.3
HNG,21.450453,-157.768
HNH,58.1,-135.4
HNI,-7.4,146.5
HNK,-18.38,146.3
HNL,21.318681,-157.922428
HNM,20.795636,-156.014439
HNN,-6.233,142.2
HNO,42.45,18.53
HNS,59.25,-135.5
HNX,41.87,-106.6
HNY,26.9,112.6
HOA,-1.5219999551773071,40.00400161743164
HOB,32.6875,-103.2170029
HOC,-7.417,145.9
HOD,14.753000259399414,42.97629928588867
HOE,20.258017,100.437083
HOF,25.28529930114746,49.485198974609375
HOG,20.785600662231445,-76.31510162353516
HOH,47.38,9.7
HOI,-18.074800491333008,-140.9459991455078
HOJ,47.3849983215,9.69999980927
HOK,-18.3367004395,130.638000488
HOL,62.9,-159.5
HOM,59.645599365234375,-151.4770050048828
HON,44.3852,-98.228542
HOO,11.98,107.6
HOP,36.668598175,-87.49620056150002
HOQ,50.288612365722656,11.856389045715332
HOR,38.519901275634766,-28.715900421142578
HOS,-37.444692,-70.222469
HOT,34.47800064086914,-93.09619903564453
HOU,29.64539909,-95.27890015
HOV,62.05,6.083
HOW,8.914794,-79.599633
HOX,24.87,94.92
HOY,58.83,-3.3
HPA,-19.777000427246094,-174.34100341796875
HPB,61.52389908,-166.1470032
HPE,-14.67,144.9
HPG,31.626,110.34
HPH,20.819400787353516,106.7249984741211
HPN,41.066959,-73.707575
HPP,13.65,102.7
HPR,-25.98,28.15
HPT,42.75,-93.2
HPV,21.98,-159.4
HPY,29.73,-94.97
HQM,46.971199035599994,-123.93699646
HQU,33.52970123,-82.51650238
HRA,34.33,73.2
HRB,45.6234016418457,126.25
HRC,48.47,70.47
HRD,68.8,16.5
HRE,-17.931800842285156,31.09280014038086
HRG,27.178300857543945,33.799400329589844
HRI,6.284467,81.124128
HRJ,28.0,83.83
HRK,49.924800872802734,36.290000915527344
HRL,26.228500366210938,-97.65440368652344
HRM,32.93040084838867,3.311539888381958
HRN,-31.92,115.9
HRO,36.26150131225586,-93.15470123291016
HRR,3.217,-75.85
HRS,-28.23,29.1
HRT,54.0489006042,-1.2527500391
HRY,-24.67,133.1
HRZ,-27.64,-54.34
HSB,37.73,-88.55
HSC,24.83,113.6
HSG,33.149700164799995,130.302001953
HSH,35.9728012085,-115.134002686
HSI,40.6,-98.43
HSK,42.0760993958,-0.316666990519
HSL,65.69789886,-156.3509979
HSM,-36.669700622558594,142.17300415039062
HSN,29.38,122.4
HSP,37.95,-79.82
HSS,29.17,75.8
HST,25.48859978,-80.38359833
HSV,34.637199401855,-86.775100708008
HSZ,24.82,120.9
HTA,52.026299,113.306
HTB,15.85,-61.63
HTF,51.75,-0.2333
HTG,71.97810363769531,102.49099731445312
HTH,38.55,-118.6
HTI,-20.3581008911,148.95199585
HTL,44.359798,-84.671095
HTM,50.45,100.2
HTN,37.038522,79.864933
HTO,40.97,-72.23
HTR,24.0589008331,123.805999756
HTS,38.36669922,-82.55799866
HTT,38.201984,90.841495
HTU,-35.715301513671875,142.36000061035156
HTV,30.7469005585,-95.5871963501
HTW,36.75,-76.25
HTY,36.36277771,36.282222747800006
HTZ,6.167,-71.75
HUA,34.67869949,-86.68479919
HUB,-16.48,130.6
HUC,18.14,-65.8
HUD,42.73,-94.22
HUE,14.25,36.58300018310547
HUF,39.451499938964844,-87.30760192871094
HUG,15.33,-91.47
HUH,-16.68720054626465,-151.02200317382812
HUI,16.401500701899998,107.70300293
HUJ,34.02,-95.52
HUK,-23.98,21.75
HUL,46.1231002808,-67.792098999
HUM,29.58,-90.67
HUN,24.023725,121.616906
HUQ,29.110106,15.965567
HUS,66.04109955,-154.2630005
HUT,38.0654983521,-97.86060333250002
HUU,-9.878809928894043,-76.20480346679688
HUV,61.7681007385,17.0806999207
HUW,-7.532120227810001,-63.072101593
HUX,15.775300025939941,-96.26260375976562
HUY,53.57440185546875,-0.350832998752594
HUZ,23.08,114.4
HVA,-14.62969970703125,47.76380157470703
HVB,-25.3188991547,152.880004883
HVD,47.9541015625,91.6281967163086
HVE,38.42,-110.7
HVG,71.009696960449,25.983600616455
HVK,65.7,-21.7
HVM,65.42,-21.0
HVN,41.26375,-72.886806
HVR,48.54299927,-109.762001
HVS,34.4030990601,-80.11920166019999
HWA,-7.433,146.0
HWD,37.659198761,-122.122001648
HWI,58.13,-134.8
HWK,-31.88,138.4
HWN,-18.37,26.52
HWO,26.001199722299997,-80.24069976810001
HXX,-34.53139877319336,144.8300018310547
HYA,41.66930008,-70.28040314
HYC,51.63,-0.7667
HYD,17.453117,78.467586
HYF,-3.633,143.1
HYG,55.206298828125,-132.8280029296875
HYI,29.8927001953125,-97.86299896240234
HYL,55.48,-132.7
HYN,28.42,122.4
HYR,46.025199890100005,-91.44429779050002
HYS,38.84220123,-99.27320099
HYV,60.6543998718,24.8810997009
HYW,33.82849884,-79.12220001
HZB,50.62,2.65
HZG,33.063599,107.008003
HZH,26.32217,109.1499
HZK,65.952301,-17.426001
HZL,40.986801147499996,-75.9949035645
HZP,57.3816986084,-111.700996399
HZV,-25.07,32.17
I16,37.600399017333984,-81.5593032836914
IAA,67.43720245361328,86.62190246582031
IAB,37.62189865,-97.26820374
IAD,38.94449997,-77.45580292
IAG,43.1072998046875,-78.94619750976562
IAH,29.984399795532227,-95.34140014648438
IAM,28.0515003204,9.64291000366
IAN,66.98,-160.4
IAO,9.8591003418,126.013999939
IAQ,27.212678,54.318592
IAR,57.560699462890625,40.15739822387695
IAS,47.17850112915039,27.6205997467041
IAT,33.97,-122.0
IAU,-9.783,148.1
IBA,7.362460136413574,3.97832989692688
IBE,4.42161,-75.1333
IBI,-8.4,146.3
IBL,-21.7,35.45
IBO,-12.33,40.58
IBP,-11.411578,-69.488711
IBR,36.181098938,140.414993286
IBZ,38.872898101800004,1.3731199502899998
ICA,4.333,-61.73
ICI,-17.7432994843,-179.341995239
ICK,5.955560207366943,-57.039398193359375
ICL,40.73,-95.03
ICN,37.469075,126.450517
ICO,11.45,123.3
ICR,20.98,-75.97
ICS,44.49,-116.0
ICT,37.649898529052734,-97.43309783935547
ICY,59.98,-141.7
IDA,43.51459884643555,-112.07099914550781
IDB,61.87,12.68
IDC,-22.18,35.52
IDF,-5.0,19.5
IDG,42.35,-95.47
IDH,45.94,-116.1
IDI,40.63,-79.1
IDK,-26.97,133.3
IDL,33.485699,-90.678902
IDN,-6.033,147.0
IDO,-11.57,-50.63
IDP,37.1584014893,-95.77839660640001
IDR,22.7217998505,75.8011016846
IDY,46.71860122680664,-2.3911099433898926
IEG,52.138500213600004,15.7986001968
IEJ,26.7220001221,127.785003662
IEO,16.711299896240234,-9.637880325317383
IES,51.3,13.28
IEV,50.40194,30.45194
IFA,42.52,-93.27
IFF,-18.92,141.3
IFH,32.92,51.55
IFJ,66.05809783935547,-23.135299682617188
IFL,-17.55940055847168,146.01199340820312
IFN,32.750836,51.861267
IFO,48.88420104980469,24.686100006103516
IFP,35.15,-114.6
IFU,5.7083,73.025
IGA,20.975000381469727,-73.66690063476562
IGB,-41.320899963399995,-69.5748977661
IGE,-1.917,9.317
IGG,59.32400131225586,-155.90199279785156
IGH,-18.660556,146.151667
IGL,38.513000488299994,27.010099411
IGM,35.25,-113.9
IGN,8.130489,124.214925
IGO,7.683,-76.68
IGQ,41.5349006652832,-87.52950286865234
IGR,-25.737300872800002,-54.473400116
IGS,48.7156982421875,11.534000396728516
IGT,43.322299957300004,45.0125999451
IGU,-25.600278854370117,-54.48500061035156
IGX,35.935001,-79.065902
IHA,33.95,133.3
IHC,-26.0,32.93
IHN,15.43,51.7
IHO,-22.4,46.13
IHR,27.23,60.72
IHU,-7.9,145.4
IIA,53.09299850463867,-9.568059921264648
III,43.67,7.217
IIL,33.58660125732422,46.40480041503906
IIN,30.83,131.0
IIS,-4.333,154.3
IJD,41.74399948120117,-72.1802978515625
IJK,56.82809829711914,53.45750045776367
IJU,-28.42,-53.92
IJX,39.77,-90.23
IKA,35.416099548339844,51.152198791503906
IKB,36.17,-81.15
IKI,33.7490005493,129.785003662
IKK,41.07139968869999,-87.8462982178
IKL,-1.048109,23.372501
IKO,53.0,-168.8
IKP,-16.25,141.5
IKS,71.697700500488,128.90299987793
IKT,52.268001556396,104.38899993896
IKU,42.58792,76.713046
IKV,41.69139862060547,-93.56639862060547
ILA,-3.833,137.6
ILB,-20.33,-51.33
ILD,41.728185,0.535023
ILE,31.15,-97.72
ILF,56.0614013672,-95.613899231
ILG,39.67869949,-75.60649872
ILH,50.93,6.95
ILI,59.75439835,-154.9109955
ILK,-19.75,48.82
ILL,45.12,-95.1
ILM,34.270599365234375,-77.90260314941406
ILN,39.42,-83.8
ILO,10.833017,122.493358
ILP,-22.588899612426758,167.45599365234375
ILQ,-17.33,-71.33
ILR,8.440210342407227,4.493919849395752
ILU,-2.9106099605560303,38.06520080566406
ILX,-5.483,145.8
ILY,55.68190002441406,-6.256669998168945
ILZ,49.231498718299996,18.6135005951
IMA,-9.5,150.5
IMB,5.7081098556518555,-60.2942008972168
IMD,-3.35,141.5
IMF,24.7600002289,93.896697998
IMG,-18.4,35.0
IMI,6.983,171.6
IMK,29.971099853515625,81.81890106201172
IML,40.52,-101.6
IMM,26.43320084,-81.40100098
IMN,-6.7,146.1
IMO,5.033,25.13
IMP,-5.531290054321289,-47.459999084472656
IMT,45.8184013367,-88.1145019531
IMZ,31.1,61.93
INA,66.07,60.1
INB,16.53,-88.43
INC,38.37,106.4
IND,39.717331,-86.294383
INE,-18.62,36.4
INF,19.55,5.767
ING,-50.33,-72.25
INH,-23.876431,35.408544
INI,43.337289,21.853722
INJ,-25.85,148.6
INK,31.779628,-103.201361
INL,48.566186,-93.403067
INM,-27.83,140.8
INN,47.260219,11.343964
INO,-1.95,18.28
INQ,53.03,-9.433
INR,46.53,-84.33
INS,36.57,-115.7
INT,36.133722,-80.222
INU,-0.55,166.9
INV,57.5425,-4.0475
INW,35.02,-110.7
INX,-2.133,132.2
INY,-24.78,31.38
INZ,27.251022,2.512017
IOA,39.6963996887207,20.822500228881836
IOB,38.05810165,-83.979599
IOK,-8.4,146.3
IOM,54.08330154418945,-4.623889923095703
ION,1.617,18.07
IOP,-8.367,147.9
IOR,53.1067008972168,-9.653610229492188
IOS,-14.815999984741,-39.033199310303
IOU,-22.42,166.8
IOW,41.639198303200004,-91.5465011597
IPA,-18.856389,169.283333
IPC,-27.1648006439,-109.42199707
IPE,7.783,122.6
IPG,-3.333,-69.42
IPH,4.567969799041748,101.09200286865234
IPI,0.861925,-77.6718
IPL,32.834201812699995,-115.57900238
IPN,-19.470722,-42.487583
IPT,41.241798400878906,-76.92109680175781
IPU,-14.13,-39.73
IPW,52.03,1.2
IQM,38.14939880371094,85.53279876708984
IQN,36.1,107.8
IQQ,-20.535200119018555,-70.1812973022461
IQT,-3.7847399711608887,-73.30879974365234
IRA,-10.449700355500001,161.897994995
IRB,30.9,-101.9
IRC,65.830498,-144.076008
IRD,24.15250015258789,89.04940032958984
IRE,-11.3,-41.87
IRG,-12.7869,143.304993
IRI,-7.668630123138428,35.75210189819336
IRJ,-29.3815994263,-66.7957992554
IRK,40.09349822998047,-92.5448989868164
IRM,63.2,64.45
IRN,15.95,-85.18
IRO,10.5,22.55
IRP,2.8276100158691406,27.588300704956055
IRS,41.8,-85.42
IRZ,-0.3786,-64.9923
ISA,-20.663900375399997,139.488998413
ISB,33.61669921875,73.09919738769531
ISC,49.913299560546875,-6.291669845581055
ISD,2.433,-77.97
ISE,37.8554000854,30.368400573699997
ISG,24.344499588,124.18699646
ISH,40.63,13.83
ISI,-24.258333,144.425
ISJ,21.2450008392334,-86.73999786376953
ISK,19.9636993408,73.8076019287
ISL,63.5,-145.0
ISM,28.2898006439,-81.4371032715
ISN,48.18,-103.7
ISO,35.331401825,-77.60880279540001
ISP,40.79520035,-73.10019684
ISQ,45.95,-88.25
ISS,43.97,-69.72
IST,40.9768981934,28.814599990799998
ISU,35.5617485046,45.316738128699996
ISW,44.3602981567,-89.83899688720001
ITA,-3.127256,-58.481186
ITB,-4.2423400878906,-56.000701904297
ITE,-18.444661,-49.213361
ITH,42.49100112915039,-76.4583969116211
ITI,-18.02,-41.7
ITJ,-26.88,-48.65
ITK,-9.517,147.3
ITM,34.785499572753906,135.43800354003906
ITN,-14.8,-39.38
ITO,19.721399307250977,-155.04800415039062
ITP,-21.219299316399997,-41.8759002686
ITQ,-29.17,-56.53
ITR,-18.45,-49.21
IUD,25.1173000336,51.3149986267
IUE,-19.079030990600586,-169.92559814453125
IUL,-3.75,138.1
IUM,54.28,-122.6
IUS,-5.817,155.2
IVA,-13.484816,48.632702
IVC,-46.41239929199219,168.31300354003906
IVG,42.43,19.78
IVH,69.4,-148.3
IVL,68.607299804688,27.405300140381
IVO,10.02,-74.68
IVR,-29.888299942,151.143997192
IVW,-17.77,129.2
IWA,56.93939971923828,40.940799713134766
IWD,46.53,-90.13
IWJ,34.676399231,131.789993286
IWO,24.784000396728516,141.322998046875
IWS,29.818199157699997,-95.67259979250001
IXA,23.8869991302,91.24040222170001
IXB,26.68120002746582,88.32859802246094
IXC,30.673500061035156,76.78849792480469
IXD,25.440099716186523,81.73390197753906
IXE,12.9612998962,74.8900985718
IXG,15.859299659700001,74.6183013916
IXH,24.30820083618164,92.0072021484375
IXI,27.295499801635742,94.09760284423828
IXJ,32.6890983582,74.8374023438
IXK,21.317100524902344,70.27040100097656
IXL,34.1358985901,77.5465011597
IXM,9.83450984955,78.09339904790001
IXN,24.07,91.63
IXP,32.233778,75.634628
IXQ,24.13,91.82
IXR,23.314300537100003,85.3217010498
IXS,24.9129009247,92.97869873050001
IXT,28.066099166870117,95.33560180664062
IXU,19.862699508666992,75.39810180664062
IXV,28.42,94.83
IXW,22.813199996900003,86.168800354
IXY,23.112699508699997,70.1003036499
IXZ,11.641200065612793,92.72969818115234
IYK,35.65879822,-117.8300018
IZA,-21.5130558014,-43.1730575562
IZG,43.991100311299995,-70.9478988647
IZM,38.52,27.02
IZO,35.4136009216,132.88999939
IZT,16.449336,-95.093697
JAA,34.39979934692383,70.49859619140625
JAB,-12.658300399780273,132.89300537109375
JAC,43.6072998046875,-110.73799896240234
JAD,-32.09749984741211,115.88099670410156
JAE,-5.59248,-78.774002
JAF,9.792329788208008,80.07009887695312
JAG,28.284167,68.449711
JAH,43.28,5.567
JAI,26.8241996765,75.8122024536
JAJ,33.93,-84.15
JAK,18.25,-72.52
JAL,19.4750995636,-96.7975006104
JAM,42.52,26.48
JAN,32.311167,-90.075889
JAO,33.93,-84.15
JAP,27.83,-104.0
JAQ,-5.6,151.5
JAR,28.48,53.53
JAS,30.88570023,-94.03489685
JAT,7.0,169.0
JAU,-11.783144,-75.473394
JAV,69.2432022095,-51.0570983887
JAX,30.49410057067871,-81.68789672851562
JBC,42.33,-71.03
JBK,37.95,-122.3
JBP,33.98,-118.2
JBQ,18.572500228881836,-69.98560333251953
JBR,35.83169937133789,-90.64640045166016
JBS,37.71,-121.9
JBT,60.8,-161.8
JCA,43.55,7.017
JCB,-27.1714000702,-51.5532989502
JCC,37.62,-122.4
JCD,17.75,-65.92
JCE,37.62,-122.4
JCH,68.822815547,-51.1734473705
JCI,38.8308982849,-94.890296936
JCJ,33.5,126.5
JCK,-20.66830062866211,141.72300720214844
JCM,-11.18,-40.52
JCN,37.43,126.4
JCO,36.0,14.33
JCR,-6.233156,-57.776869
JCT,30.5112991333,-99.7634963989
JCU,35.9,5.338
JCX,34.05,-118.3
JCY,32.33,-97.33
JDA,44.42,-119.0
JDB,32.77,-97.32
JDF,-21.791500091552734,-43.38679885864258
JDH,26.251100540161133,73.04889678955078
JDM,25.8,-80.3
JDN,47.32,-106.9
JDO,-7.21895980835,-39.270099639899996
JDP,48.72,2.383
JDR,-21.09,-43.23
JDT,44.97,-93.24
JDX,29.77,-95.33
JDY,42.43,-112.1
JDZ,29.3386001587,117.176002502
JED,21.6796,39.156502
JEE,18.66309928894043,-74.17030334472656
JEF,38.5912017822,-92.15609741210001
JEG,68.7218017578,-52.7846984863
JEJ,7.583,168.9
JEM,33.95,-117.4
JEQ,-13.85,-40.08
JER,49.20790100097656,-2.195509910583496
JES,31.55400085,-81.88249969
JEV,48.63,2.567
JFK,40.63980103,-73.77890015
JFM,-31.95,116.0
JFN,41.73,-80.77
JFR,61.9921989441,-49.6624984741
JGA,22.465499877929688,70.01260375976562
JGB,19.07,82.03
JGC,35.97,-112.1
JGE,34.9,128.7
JGG,37.239200592041016,-76.71610260009766
JGL,33.58,-84.47
JGN,39.75,98.25
JGO,69.251181993,-53.5148763657
JGP,28.8,-97.01
JGQ,29.77,-95.47
JGR,61.23,-48.1
JGS,40.05,116.6
JGX,34.08,-118.3
JHB,1.6413099765777588,103.66999816894531
JHC,40.73,-73.6
JHE,56.05,12.7
JHG,21.973899841308594,100.76000213623047
JHM,20.962900161743164,-156.67300415039062
JHQ,-20.277221,148.755556
JHS,66.9513015747,-53.7293014526
JHW,42.15340042,-79.25800323
JHY,33.97,-118.0
JIA,-11.41944408416748,-58.70166778564453
JIB,11.547300338745117,43.15950012207031
JID,34.02,-118.0
JIJ,9.3325,42.9121
JIK,37.6827011108,26.3470993042
JIL,43.85,126.6
JIM,7.66609001159668,36.81660079956055
JIN,0.45,33.2
JIO,34.05,-117.6
JIP,-1.333,-80.67
JIR,27.63,86.23
JIU,29.476944,115.801111
