Airport,Latitude,Longitude
AAA,-17.352606,-145.509956
AAB,-26.75,141
AAC,31.073333,33.835833
AAD,18.05,30.95
AAE,36.822225,7.809167
AAF,29.73,-85.03
AAG,-22.87,-43.27
AAH,50.75,6.133
AAI,-12.92,-46.93
AAJ,3.9,-55.37
AAK,0.2167,174
AAL,57.092789,9.849164
AAM,-24.8,31.53
AAN,24.261667,55.609167
AAO,9.430225,-64.470725
AAP,29.65,-95.3
AAQ,45.002097,37.347272
AAR,56.300017,10.619008
AAS,-3.917,139.3
AAT,43.93,89.5
AAU,-13.45,-172.6
AAV,6.333,124.8
AAW,34.2,73.25
AAX,-19.57,-46.92
AAY,16.191667,52.175
AAZ,14.86,-91.5
ABA,-34.943333,117.808889
ABB,51.53,-0.3
ABC,38.95,-15.18
ABD,30.371111,48.228333
ABE,40.652083,-75.440806
ABF,1.417,172.8
ABG,-17.67,143.2
ABH,-23.646111,146.583611
ABI,32.411319,-99.681897
ABJ,5.261386,-3.926294
ABK,6.733,44.27
ABL,67.1,-157.8
ABM,-10.950833,142.459444
ABN,5.483,-54.05
ABO,5.467,-3.2
ABP,-6.067,141.1
ABQ,35.05,-106.6
ABR,45.449056,-98.421833
ABS,22.375953,31.611722
ABT,20.296139,41.634277
ABU,-9.333,124.9
ABV,9.006792,7.263172
ABW,-10.17,148.7
ABX,-36.067778,146.958056
ABY,31.535515,-84.194473
ABZ,57.201944,-2.197778
ACA,16.757061,-99.753953
ACB,44.98,-85.2
ACC,5.605186,-0.166786
ACD,8.517,-77.3
ACE,28.945464,-13.605225
ACH,47.485033,9.560775
ACI,49.706111,-2.214722
ACJ,8.3,80.43
ACK,41.253053,-70.060181
ACL,4.75,-73
ACM,-2.133,-71.78
ACN,29.3,-100.9
ACO,46.15,8.767
ACP,37.35,46.15
ACR,-0.3833,-72.3
ACS,56.27,90.57
ACT,31.611289,-97.230519
ACU,8.433,-77.97
ACV,40.978111,-124.108611
ACX,40.05,116.6
ACY,39.457583,-74.577167
ACZ,31.09,61.54
ADA,36.982166,35.280388
ADB,38.292392,27.156953
ADC,-7.141,154.7
ADD,8.977889,38.799319
ADE,12.829542,45.028792
ADF,37.73,38.46
ADG,41.9,-84.03
ADH,58.6,125.4
ADI,-22.462223,14.98
ADJ,31.972703,35.991569
ADK,51.87,-176.7
ADL,-34.945,138.530556
ADM,34.3,-97.02
ADN,5.667,-75.88
ADO,-31.02,137.2
ADP,8.301486,80.4279
ADQ,57.749967,-152.493856
ADR,33.45,-79.57
ADS,32.85,-96.85
ADT,34.77,-96.68
ADU,38.325678,48.424356
ADV,51.22,-1.467
ADW,38.810806,-76.867028
ADX,56.372889,-2.868444
ADY,-22.67,29.1
ADZ,12.583594,-81.711192
AEA,0.4833,173.9
AEB,23.72,107
AED,58.03,-152.9
AEE,10.06,32.95
AEG,1.383,99.45
AEH,13.847,20.844333
AEI,36.18,-5.45
AEK,-7.367,146.3
AEL,43.68,-93.37
AEO,16.711294,-9.637883
AEP,-34.559175,-58.415606
AER,43.449928,39.956589
AES,62.560372,6.110164
AET,66.55,-152.7
AEU,25.88,55.03
AEX,31.3274,-92.549833
AEY,65.659994,-18.072703
AFA,-34.588314,-68.403854
AFD,-33.58,26.88
AFF,37.43,-105.9
AFI,6.917,-75.07
AFK,7.292,81.64
AFL,-9.866092,-56.106206
AFN,42.8,-72
AFO,42.72,-110.9
AFR,-9.133,148.4
AFS,41.61,64.23
AFT,-9.183,160.9
AFW,32.987639,-97.318806
AFY,38.726425,30.601114
AFZ,36.21,57.67
AGA,30.324997,-9.413067
AGB,48.425158,10.931764
AGC,40.354403,-79.930169
AGD,-1.383,133.9
AGE,53.78,7.917
AGF,44.174721,0.590556
AGG,-4.067,144.1
AGH,56.3,12.85
AGI,5.767,-56.68
AGJ,26.83,127.2
AGK,-6.333,143.8
AGL,-9.333,149.2
AGM,65.58,-38
AGN,57.5,-134.6
AGO,33.23,-93.22
AGP,36.6749,-4.499106
AGQ,38.602022,21.351208
AGR,27.155831,77.960892
AGS,33.369944,-81.9645
AGT,-25.4555,-54.843592
AGU,21.705558,-102.317858
AGV,9.553422,-69.237536
AGW,-12.15,142.2
AGX,10.823656,72.176042
AGY,-16.35,128.8
AGZ,-29.281767,18.813869
AHA,26.2,127.7
AHB,18.240367,42.656625
AHC,40.27,-120.2
AHD,34.15,-97.15
AHE,-14.43,-146.3
AHF,40.3,-99.9
AHH,45.28,-92.37
AHI,-3.333,128.9
AHL,2.483,-59.32
AHM,42.19,-122.7
AHN,33.948594,-83.326347
AHO,40.632133,8.290772
AHS,15.43,-84.42
AHT,51.5,179
AHU,35.177103,-3.839525
AHY,-20.02,45.53
AHZ,45.08,6.083
AIA,42.07,-102.8
AIB,56.23,-132.4
AIC,7.1,171.2
AID,40.17,-85.68
AIE,-5.133,144.7
AIF,-22.638564,-50.455914
AIG,6.517,23.25
AIH,-7.349,141.3
AII,11.15,42.72
AIK,33.65,-81.68
AIL,9.233,-78.02
AIM,10.2,170
AIN,70.613378,-159.86035
AIO,41.4,-95.02
AIP,7.267,168.8
AIR,-14.42,-56.45
AIS,-2.633,176.8
AIT,-18.830922,-159.764233
AIU,-20.03,-158.1
AIV,33.1,-88.2
AIW,-27.98,17.58
AIY,39.37,-74.45
AIZ,38.1,-92.55
AJA,41.923637,8.802917
AJF,29.93,40.2
AJI,39.65,43.03
AJJ,19.73,-14.38
AJK,34.09,49.68
AJL,23.746603,92.802767
AJN,-12.131667,44.430279
AJO,29.785133,40.100006
AJR,65.590278,19.281944
AJS,26.73,-113.6
AJU,-10.984,-37.070333
AJY,16.965997,8.000114
AKA,32.5,109
AKB,52.2,-174.2
AKC,41.4,-81.07
AKD,-26.871064,26.718003
AKE,-1.167,13.92
AKF,24.178728,23.313958
AKG,-3.583,142.3
AKH,24.06,47.58
AKI,60.9,-161.2
AKJ,43.670833,142.4475
AKK,56.95,-154.2
AKL,-37.008056,174.791667
AKM,10.88,19.82
AKN,58.676778,-156.649278
AKO,40.17,-103.2
AKP,68.13,-151.7
AKQ,-4.617,105.2
AKR,7.246739,5.301008
AKS,-27.660617,27.315761
AKT,34.590416,32.987861
AKU,38.67,75.67
AKV,60.73,-78.58
AKW,30.75,49.68
AKX,50.245833,57.206667
AKY,20.132708,92.872628
ALA,43.352072,77.040508
ALB,42.748267,-73.801692
ALC,38.282169,-0.558156
ALD,-11.7,-69.35
ALE,30.38,-103.7
ALF,69.976111,23.371667
ALG,36.691014,3.215408
ALH,-34.95,117.8
ALI,27.740889,-98.026944
ALJ,-28.575001,16.533333
ALK,7.967,39.12
ALL,44.050608,8.127428
ALM,32.839944,-105.990583
ALN,38.890292,-90.046044
ALO,42.557081,-92.400345
ALP,36.180675,37.224358
ALQ,-29.8,-55.73
ALR,-45.211666,169.373333
ALS,37.43,-105.9
ALT,-1.933,-54.73
ALU,11.88,50.67
ALV,40.98,0.45
ALW,46.094778,-118.289
ALX,32.93,-85.95
ALY,31.183903,29.948889
ALZ,56.88,-154.2
AMA,35.219369,-101.705931
AMB,-13.188431,48.987978
AMC,11.03,20.28
AMD,23.077242,72.63465
AME,-15.65,37.68
AMF,-4.167,141.7
AMG,-4.6,143.5
AMH,6.039389,37.590453
AMI,-8.567,116.1
AMJ,-16.18,-40.68
AMK,37.15,-107.8
AML,8.3,-82.87
AMM,31.722556,35.993214
AMN,43.38,-84.65
AMO,14.12,15.32
AMP,-24.7,44.73
AMQ,-3.710264,128.089136
AMR,7.083,171.7
AMS,52.308613,4.763889
AMT,-26.2,131.1
AMU,-3.517,141.3
AMV,69.77,61.55
AMW,42,-93.62
AMX,-21.73,135.2
AMY,-17.68,45.67
AMZ,-37.029722,174.973333
ANA,33.85,-118
ANB,33.588167,-85.858111
ANC,61.174361,-149.996361
AND,34.494583,-82.709389
ANE,47.47,-0.55
ANF,-23.444478,-70.4451
ANG,45.729247,0.221456
ANH,-8.983,160.5
ANI,61.58,-159.5
ANJ,-2.85,13.83
ANK,39.949831,32.688622
ANL,-11.5,16.75
ANM,-14.999411,50.320233
ANN,55.042436,-131.572233
ANO,-16.17,39.93
ANP,38.98,-76.5
ANQ,41.63,-85
ANR,51.189444,4.460278
ANS,-13.706408,-73.350378
ANT,47.15,10.28
ANU,17.136749,-61.792667
ANV,62.65,-160.2
ANW,42.58,-99.98
ANX,69.2925,16.144167
ANY,37.15,-98.03
ANZ,-25.08,132.2
AOA,-9.033,146.8
AOB,-4.917,144.7
AOC,50.981817,12.506361
AOD,11.47,19.28
AOE,39.8,30.53
AOG,41.17,123
AOH,40.72,-84.1
AOI,43.616342,13.362319
AOJ,40.734722,140.690833
AOK,35.421408,27.146008
AOL,-29.689425,-57.152078
AON,-6.25,146
AOO,40.296372,-78.320022
AOR,6.189667,100.398183
AOS,57.47,-153.8
AOT,45.74,7.363
AOU,14.8,106.8
APA,39.57,-104.8
APB,-14.72,-68.5
APC,38.45,-122.2
APE,-15.35,-75.17
APF,26.15,-81.77
APG,39.466219,-76.168808
APH,38.05,-77.35
API,4.076069,-73.562731
APK,-15.08,-145.3
APL,-15.105611,39.2818
APN,45.078068,-83.560287
APO,7.033,-77.2
APP,-8.983,148.1
APQ,-9.75,-36.65
APR,-4.3,142.4
APS,-16.229153,-48.964267
APT,35.07,-85.63
APU,-23.55,-51.48
APV,34.52,-117.2
APW,-13.829969,-172.008336
APX,-23.38,-51.95
APY,-9.1,-45.97
APZ,-38.9755,-70.113581
AQA,-21.812,-48.133028
AQB,15.01,-91.15
AQG,30.52,117
AQI,28.335192,46.125069
AQJ,29.611619,35.018067
AQM,-9.933,-63.07
AQP,-16.341072,-71.583083
AQS,-16.75,179.4
AQY,60.97,-149.1
ARA,30,-91.82
ARB,-28.741039,32.092111
ARC,68.12,-145.6
ARD,-8.25,124.8
ARE,18.45,-66.67
ARF,0.5333,-70.13
ARG,36.12,-90.92
ARH,64.600281,40.716667
ARI,-18.348531,-70.338742
ARJ,-2.933,140.8
ARK,-3.367794,36.633333
ARL,11.58,1.25
ARM,-30.528056,151.617222
ARN,59.651944,17.918611
ARO,8.867,-76.43
ARP,-9.9,149.5
ARQ,7.033,-71.43
ARR,-45.17,-71
ARS,-15.92,-52.25
ART,43.991922,-76.021739
ARU,-21.141342,-50.424722
ARV,45.92,-89.73
ARW,46.17655,21.262022
ARX,40.18,-74.12
ARY,-37.309444,142.988611
ARZ,-7.233,12.9
ASA,13.071783,42.645006
ASB,-29.689333,17.939611
ASC,-15.72,-63.07
ASD,24.698283,-77.795611
ASE,39.22,-106.9
ASF,46.283333,48.006278
ASG,-43.9,171.8
ASH,42.78,-71.52
ASI,-7.933,-14.42
ASJ,28.430633,129.712542
ASK,6.903167,-5.365581
ASL,32.55,-94.38
ASM,15.291853,38.910667
ASN,33.43,-86.1
ASO,10.01855,34.586253
ASP,-23.806667,133.902222
ASQ,39.5,-117.1
ASR,38.770386,35.495428
AST,46.17,-123.9
ASU,-25.23985,-57.519133
ASV,-2.633,37.25
ASW,23.964356,32.819975
ASX,46.55,-90.92
ASY,46.03,-99.37
ASZ,-5.867,150.4
ATA,-9.347444,-77.598392
ATB,17.7,33.98
ATC,24.629417,-75.673775
ATD,-8.867,161
ATE,34.23,-95.62
ATF,-1.212067,-78.574636
ATG,33.9,72.25
ATH,37.936358,23.944467
ATI,-30.42,-56.52
ATJ,-19.08,47.07
ATK,70.47,-157.3
ATL,33.636719,-84.428067
ATM,-3.253906,-52.253978
ATN,-3.667,152.5
ATO,39.33,-82.1
ATP,-3.133,142.4
ATQ,31.709594,74.797264
ATR,20.506828,-13.043194
ATS,32.85,-104.5
ATT,61,-162.8
ATU,52.83,173.2
ATV,13.23,18.32
ATW,44.27,-88.52
ATX,51.88,68.4
ATY,44.913981,-97.154719
ATZ,27.05,31.02
AUA,12.501389,-70.015221
AUB,-20.45,-54.62
AUC,7.068881,-70.736925
AUD,-18.67,139.9
AUE,28.97,33.18
AUF,47.850193,3.497111
AUG,44.32,-69.8
AUH,24.432972,54.651138
AUI,-1.45,143.1
AUJ,-4.25,142.9
AUK,62.68,-164.6
AUL,8.133,171.2
AUM,43.67,-92.93
AUN,38.9,-121.1
AUO,32.62,-85.43
AUP,-9.917,149.3
AUQ,-9.8,-139
AUR,44.891388,2.421944
AUS,30.194528,-97.669889
AUT,-8,125.7
AUU,-13.353889,141.720833
AUV,-5.717,148.4
AUW,44.93,-89.63
AUX,-7.2,-48.2
AUY,-20.33,169.7
AUZ,41.77,-88.32
AVA,40.05,116.6
AVB,46.031889,12.596472
AVF,46.42,6.5
AVG,-15.75,129.9
AVI,22.027053,-78.789617
AVK,46.25,102.8
AVL,35.436194,-82.541806
AVN,43.9073,4.901831
AVO,27.6,-81.52
AVP,41.338478,-75.723403
AVU,-9.85,160.4
AVV,-38.039444,144.469444
AVW,32.4,-111.2
AVX,33.33,-118.4
AWA,6.967,38.4
AWB,-4.117,144.9
AWD,-19.28,169.6
AWE,-0.75,9.45
AWH,8.267,44.18
AWK,19.282067,166.636444
AWM,35.13,-90.18
AWN,-26.48,139.3
AWP,-20.33,137.3
AWR,-4.117,144.9
AWZ,31.337431,48.76195
AXA,18.204834,-63.055084
AXB,44.25,-75.9
AXC,-23.08,145.3
AXD,40.855869,25.956264
AXE,-26.88,-52.38
AXG,43.07,-94.23
AXK,14.551322,46.826183
AXL,-19.12,136.8
AXM,4.452775,-75.766447
AXN,45.866297,-95.394669
AXP,22.441828,-73.970858
AXR,-15.248289,-146.616708
AXS,34.7,-99.33
AXT,39.615556,140.218611
AXU,14.14675,38.772833
AXV,40.57,-84.18
AXX,36.42,-105.3
AYA,8.3,-75.15
AYC,8.6,-73.62
AYD,-19.3,136
AYE,33.98,-118.5
AYG,2.667,-75.52
AYH,52.37,-0.2667
AYI,-0.3833,-72.27
AYK,50.32,66.97
AYL,-18.02,135.6
AYN,36.1,114.4
AYO,-27.37065,-56.853944
AYP,-13.154819,-74.204417
AYQ,-25.186111,130.975556
AYR,-19.584444,147.329167
AYS,31.25,-82.4
AYT,36.898731,30.800461
AYU,-6.333,145.9
AYW,-1.2,132.5
AYZ,40.67,-73.42
AZA,33.32,-111.9
AZB,-10.3,149.3
AZD,31.904908,54.276503
AZG,19.08,-102.4
AZI,24.428333,54.458084
AZL,-13.47,-58.85
AZN,40.73,72.3
AZO,42.234875,-85.552058
AZP,19.43,-99.08
AZR,27.837589,-0.186414
AZS,19.27,-69.74
AZT,6.817,-73.28
AZZ,-7.883,13.15
BAA,-5.317,151
BAB,39.136089,-121.436567
BAC,4.583,-72.97
BAD,32.50182,-93.662674
BAE,44.38,6.633
BAF,42.157776,-72.715553
BAG,16.375103,120.619636
BAH,26.270834,50.63361
BAI,9.167,-83.33
BAJ,-4.883,149.1
BAK,40.4675,50.046667
BAL,37.928969,41.116583
BAM,40.63,-116.9
BAN,-4.167,20.33
BAO,17.38,102.8
BAP,-10.33,149.6
BAQ,10.889589,-74.780819
BAR,57.17,-170.2
BAS,-7.983,155.9
BAT,-20.584547,-48.594086
BAU,-22.345042,-49.0538
BAV,40.67,110
BAW,-0.6667,9.45
BAX,53.363775,83.538533
BAY,47.658389,23.470022
BAZ,-0.9667,-62.93
BBA,-45.916058,-71.689475
BBB,45.32,-95.6
BBC,28.98,-95.97
BBD,31.13,-99.33
BBE,-27.42,117.7
BBF,42.5,-71.18
BBG,3.083,172.8
BBH,54.33754,12.699705
BBI,20.244364,85.817781
BBJ,51.193531,14.519747
BBK,-17.832875,25.1624
BBL,36.65,52.67
BBM,13.095564,103.224408
BBN,3.683,115.5
BBO,10.389167,44.941106
BBP,50.68,-1.083
BBQ,17.6,-61.78
BBR,16.17,-61.75
BBS,51.323889,-0.8475
BBT,4.221583,15.786369
BBU,44.503194,26.102111
BBV,4.667,-6.95
BBW,41.4,-99.63
BBX,40.15,-75.27
BBY,5.85,20.63
BBZ,-13.53,23.12
BCA,20.365317,-74.506206
BCB,37.23,-80.42
BCC,57.62,-155.9
BCD,10.642511,122.929617
BCE,37.7,-112.2
BCF,6.5,18.28
BCG,7.7,-59.17
BCH,-8.485547,126.399389
BCI,-23.565278,145.306667
BCJ,37.97,-105.8
BCK,-17.4,144.2
BCL,10.78,-83.58
BCM,46.521946,26.910278
BCN,41.297078,2.078464
BCO,5.783,36.55
BCP,-5.85,146.5
BCQ,27.68,14.22
BCR,-8.633,-67.42
BCS,29.87,-90.02
BCT,26.37,-80.12
BCU,10.32,9.833
BCV,61.416489,-149.50735
BCW,-11.35,40.35
BCX,53.93,58.33
BCY,6.217,36.67
BCZ,-13.78,137.8
BDA,32.364042,-64.678703
BDB,-24.903889,152.318611
BDC,-5.467,-45.27
BDD,-10.12,142.1
BDE,48.728444,-94.612222
BDF,41.18,-89.65
BDG,37.58,-109.5
BDH,26.532,54.824847
BDI,-3.717,55.22
BDJ,-3.283,114.7
BDK,8.033,-2.8
BDL,41.938889,-72.683222
BDM,40.317972,27.977694
BDN,24.841519,68.838408
BDO,-6.9,107.6
BDP,26.57,88.08
BDQ,22.336164,73.226289
BDR,41.163472,-73.126167
BDS,40.657633,17.947033
BDT,4.253206,20.975283
BDU,69.055758,18.540356
BDV,-7.083,29.73
BDW,-17.3,127.5
BDX,45.45,-105.4
BDY,43.12,-124.4
BDZ,-6.333,147
BEA,-8.65,146.5
BEB,57.481111,-7.362778
BEC,37.69,-97.21
BED,42.469953,-71.289031
BEE,-12.98,141.6
BEF,11.990961,-83.774086
BEG,44.818444,20.309139
BEH,42.13,-86.43
BEI,9.383,34.53
BEJ,2.167,117.7
BEK,26.22,81.23
BEL,-1.37925,-48.476292
BEM,5.267,17.65
BEN,32.096786,20.269472
BEO,-33.03,151.7
BEP,15.162783,76.882775
BEQ,52.342611,0.772939
BER,52.516,13.3769
BES,48.447911,-4.418539
BET,60.779778,-161.838
BEU,-24.346111,139.460278
BEV,31.287003,34.722953
BEW,-19.796419,34.907556
BEX,51.616389,-1.095833
BEY,33.820931,35.488389
BEZ,-1.333,176
BFA,-20.23,-58.17
BFB,58.18,-152.1
BFC,-15.9,145.3
BFD,41.803067,-78.640122
BFE,52.03,8.533
BFF,41.874028,-103.595639
BFG,37.55,-110.7
BFH,-25.405078,-49.232036
BFI,47.53,-122.301947
BFJ,-17.57,177.7
BFK,39.77,-104.9
BFL,35.433598,-119.05677
BFM,30.626783,-88.068092
BFN,-29.092722,26.302444
BFO,-21.008083,31.57855
BFP,40.77,-80.4
BFQ,9.083,-79.43
BFR,38.85,-86.48
BFS,54.6575,-6.215833
BFT,32.42,-80.63
BFU,32.95,117.3
BFV,15.229539,103.253231
BFW,35.17,-0.5894
BFX,5.536919,10.354583
BGA,7.1265,-73.184778
BGB,-0.1,11.93
BGC,41.8578,-6.707125
BGD,35.65,-101.4
BGE,30.9,-84.6
BGF,4.398475,18.518786
BGG,6.65,-4.2
BGH,16.63,-14.2
BGI,13.074603,-59.492456
BGJ,64.47,-21.98
BGK,16.52,-88.42
BGL,28.22,83.67
BGM,42.208689,-75.979839
BGN,51.2,6.133
BGO,60.293386,5.218142
BGP,-2.167,10.22
BGQ,61.53,-149.8
BGR,44.807444,-68.828139
BGS,32.3,-101.4
BGT,34.57,-113.2
BGU,4.783,22.8
BGV,-29.17,-51.52
BGW,33.28,44.5
BGX,-31.390528,-54.112244
BGY,45.673889,9.704166
BGZ,41.58,-8.45
BHA,-0.5833,-80.4
BHB,44.45,-68.37
BHC,33.92,73.43
BHD,54.618056,-5.8725
BHE,-41.518333,173.870278
BHF,6.55,-77.33
BHG,15.83,-84.83
BHH,19.98435,42.620881
BHI,-32.001389,141.471667
BHJ,23.287828,69.670147
BHK,39.775,64.483333
BHL,28.95,-113.6
BHM,33.562942,-86.75355
BHN,14.781972,45.720083
BHO,23.287467,77.337375
BHP,27.17,87.05
BHQ,-32,141.5
BHR,27.68,84.42
BHS,-33.409444,149.651944
BHT,-23.5,141.6
BHU,21.752206,72.185181
BHV,29.3481,71.717981
BHW,32.08,72.67
BHX,52.453856,-1.748028
BHY,21.48,109.1
BHZ,-19.75,-43.75
BIA,42.552664,9.483731
BIB,3.067,43.8
BIC,57.67,-157.6
BID,41.17,-71.58
BIE,40.32,-96.75
BIF,31.849528,-106.380039
BIG,63.994547,-145.721642
BIH,37.37,-118.4
BII,11.58,165.4
BIJ,-5.583,146.4
BIK,-1.190017,136.107997
BIL,45.807667,-108.542889
BIM,25.699881,-79.264656
BIN,34.8,67.82
BIO,43.301097,-2.910608
BIP,-16.15,143.8
BIQ,43.468419,-1.523325
BIR,26.481453,87.264036
BIS,46.772733,-100.745739
BIT,29.53,80.43
BIU,65.83,-23.98
BIV,6.533,21.98
BIW,-19.58,127.6
BIX,30.410425,-88.924433
BIY,-32.83,27.33
BIZ,-5.283,142
BJA,36.711997,5.069922
BJB,37.492958,57.308219
BJC,39.908787,-105.117217
BJD,66.07,-14.75
BJE,11.21,28.52
BJF,70.600278,29.6925
BJG,-5.117,119.4
BJH,29.55,81.25
BJI,47.52,-94.93
BJJ,40.8,-81.93
BJK,-6.083,134.3
BJL,13.337961,-16.652206
BJM,-3.324019,29.318519
BJN,-17.18,37.95
BJO,-22.773336,-64.312881
BJP,-22.95,-46.57
BJR,11.608075,37.321644
BJS,40.05,116.6
BJT,6.418,80
BJU,29.35,81.3
BJV,37.250611,27.664311
BJW,-8.783,121
BJX,20.993464,-101.480847
BJY,44.82,20.3
BJZ,38.89125,-6.821333
BKA,55.62,38.07
BKB,28.070606,73.207161
BKC,65.98,-161.2
BKD,32.75,-98.9
BKE,44.837333,-117.809083
BKF,39.701668,-104.75166
BKH,22.022833,-159.785
BKI,5.937208,116.051181
BKJ,10.97,-14.28
BKK,13.912583,100.60675
BKL,41.5175,-81.683333
BKM,3.967,115.6
BKN,13.8,5.233
BKO,12.533544,-7.949944
BKP,-21.03,138.3
BKQ,-24.427778,145.428611
BKR,12.83,17.25
BKS,-3.8637,102.339036
BKT,37.07,-77.96
BKU,-23.73,44.38
BKW,37.787328,-81.124164
BKX,44.3,-96.82
BKY,-2.308978,28.808803
BKZ,-1.3,31.8
BLA,10.107139,-64.689161
BLB,8.95,-79.57
BLC,5.9,10
BLD,35.98,-114.8
BLE,60.422017,15.515211
BLF,37.3,-81.2
BLG,2.65,113.8
BLH,33.62,-114.7
BLI,48.792694,-122.537528
BLJ,35.55,6.167
BLK,53.771667,-3.028611
BLL,55.740322,9.151778
BLM,40.18,-74.12
BLN,-36.55,146
BLO,65.67,-20.3
BLP,-12.02,-77.13
BLQ,44.535444,11.288667
BLR,12.949986,77.668206
BLS,-28.03,147.4
BLT,-23.603056,148.806944
BLU,38.58,-121.5
BLV,38.545178,-89.835183
BLW,21.35,-157.7
BLX,46.33,12.33
BLY,54.23,-10
BLZ,-15.679053,34.974014
BMA,59.354372,17.94165
BMB,2.3,22.55
BMC,41.53,-112.1
BMD,-19.67,44.55
BME,-17.944722,122.231667
BMF,5.733,22.8
BMG,39.146022,-86.616683
BMH,-6.367,144.6
BMI,40.477111,-88.915917
BMJ,5.433,-58.55
BMK,53.5955,6.709167
BML,44.48,-71.17
BMM,2.075639,11.493195
BMN,37.1,43.27
BMO,24.27,97.25
BMP,-20.78,149.2
BMQ,-3.95,39.73
BMR,53.73,7.389
BMS,-14.22,-41.67
BMT,30.07,-94.22
BMU,-8.467,118.7
BMV,12.67,108.1
BMW,21.13,1.067
BMX,59.37,-155.3
BMY,-19.75,163.7
BMZ,-7.833,143.2
BNA,36.124472,-86.678194
BNB,-0.2333,20.83
BNC,0.5667,29.47
BND,27.218317,56.37785
BNE,-27.384167,153.1175
BNF,57.08,-134.8
BNG,33.93,-116.9
BNH,41.74,-72.65
BNI,6.316981,5.599503
BNJ,50.77,7.167
BNK,-28.833889,153.5625
BNL,33.25,-81.38
BNM,-9.083,147.5
BNN,65.461111,12.2175
BNO,43.58,-119
BNP,32.97,70.52
BNQ,7.583,126.6
BNR,10.63,-4.767
BNS,8.619575,-70.220825
BNT,-5.733,145.2
BNU,-26.93,-49.05
BNV,-6.417,146.8
BNW,42.07,-93.88
BNX,44.77,17.18
BNY,-11.3,159.8
BNZ,-5.783,144.6
BOA,-5.817,13.07
BOB,-16.444378,-151.751286
BOC,9.340853,-82.250842
BOD,44.828335,-0.715556
BOE,-1.033,15.38
BOF,38.84,-77.02
BOG,4.701594,-74.146947
BOH,50.78,-1.8425
BOI,43.564361,-116.222861
BOJ,42.569583,27.515236
BOK,42.05,-124.3
BOL,52.42,-1.5
BOM,19.088686,72.867919
BON,12.131044,-68.268511
BOO,67.269167,14.365278
BOP,5.967,15.63
BOQ,-6.267,155.2
BOR,47.65,7.017
BOS,42.364347,-71.005181
BOT,-9.5,147.1
BOU,47.058056,2.370278
BOV,-3.367,153.3
BOW,27.93,-81.78
BOX,-16.075278,136.302222
BOY,11.160056,-4.330969
BOZ,6.317,16.38
BPA,40.75,-73.48
BPB,-9.133,147.5
BPC,6.039239,10.122639
BPD,-7.75,147
BPE,24,96
BPF,-8.583,158.1
BPG,-15.861344,-52.388894
BPH,8.2,126.4
BPI,42.58,-110.1
BPK,-5.53,141.7
BPM,17.45,78.38
BPN,-1.267,116.9
BPS,-16.438639,-39.080917
BPT,29.950833,-94.020694
BPU,33.3,131.5
BPX,30.56,97.11
BPY,-16.741945,44.481388
BQA,15.77,121.6
BQB,-33.72,115.3
BQE,-33.5618,-70.6884
BQH,51.330833,0.0325
BQI,-18.12,21.62
BQK,31.258808,-81.466497
BQL,-22.913333,139.899722
BQN,18.494861,-67.129444
BQO,9.267,-3
BQQ,-11.07,-43.17
BQS,50.425394,127.412478
BQT,52.108334,23.898056
BQU,13,-61.27
BQV,58.43,-135.7
BQW,-20.13,127.8
BRA,-12.05,-45
BRB,-2.833,-42.83
BRC,-41.151172,-71.157542
BRD,46.4,-94.13
BRE,53.0475,8.786667
BRF,53.8,-1.75
BRG,37.12,-82.82
BRH,-5.7,145.4
BRI,41.138856,16.760594
BRJ,-36.73,147
BRK,-30.039167,145.951667
BRL,40.783226,-91.125506
BRM,10.042747,-69.358619
BRN,46.9141,7.497153
BRO,25.906833,-97.425861
BRP,-7.667,146.4
BRQ,49.151269,16.694433
BRR,57.02,-7.433
BRS,51.382669,-2.719089
BRT,-11.769167,130.619722
BRU,50.901389,4.484444
BRV,53.507081,8.572878
BRW,71.285446,-156.766003
BRX,18.251464,-71.1204
BRY,37.82,-85.47
BRZ,8.733,-7.5
BSA,11.5,49
BSB,-15.8711,-47.918625
BSC,6.202917,-77.394675
BSD,25.15,99.15
BSE,1.8,109.8
BSF,19.760056,-155.553717
BSG,1.905469,9.805681
BSH,50.83,-0.1333
BSI,40.43,-79.27
BSJ,-37.8875,147.567778
BSK,34.793289,5.738231
BSL,47.6,7.533
BSM,36.65,52.35
BSN,6.5,17.43
BSO,20.451322,121.979883
BSP,-9.05,141.1
BSQ,31.35,-109.9
BSR,30.549069,47.662142
BSS,-7.5,-46.03
BST,31.55,64.37
BSU,1.217,19.8
BSV,-15.67,47.07
BSW,60.4,-146.1
BSX,16.8,94.78
BSY,2.35,42.33
BSZ,58.27,-157.5
BTA,4.583,13.68
BTB,3.05,18.52
BTC,7.7,81.67
BTD,-18.63,135.9
BTE,7.517,-12.5
BTF,40.88,-111.9
BTG,7.3,18.3
BTH,1.067,104.1
BTI,70.133989,-143.581867
BTJ,5.523522,95.420372
BTK,56.370556,101.698331
BTL,42.307278,-85.251481
BTM,45.954806,-112.497472
BTN,34.62,-79.68
BTO,4.233,-55.45
BTP,40.77,-79.95
BTQ,-2.6,29.73
BTR,30.533167,-91.149639
BTS,48.170167,17.212667
BTT,66.913944,-151.529056
BTU,3.12385,113.020472
BTV,44.471861,-73.153278
BTW,-3.45,116
BTX,-25.63,140.8
BTY,36.9,-116.8
BTZ,40.23,29.02
BUA,-5.25,154.6
BUB,41.78,-99.13
BUC,-17.748611,139.534444
BUD,47.436933,19.255592
BUE,-34.67,-58.63
BUF,42.940525,-78.732167
BUG,-12.609025,13.403711
BUH,44.5,26.08
BUI,-3.717,138.7
BUJ,35.3325,4.206389
BUK,15.83,43.77
BUL,-7.2,146.7
BUM,38.25,-94.32
BUN,3.819628,-76.989767
BUO,9.517,45.57
BUP,30.270139,74.755772
BUQ,-20.017431,28.617869
BUR,34.200667,-118.358667
BUS,41.97,41.73
BUT,53.42,-2.583
BUU,6.267,-7.05
BUV,-30.33,-57.08
BUW,-5.467,122.6
BUX,1.565719,30.220833
BUY,-33.32,115.6
BUZ,28.944811,50.834637
BVA,49.454444,2.112778
BVB,2.846311,-60.690069
BVC,16.136531,-22.888897
BVD,66.36,-147.4
BVE,45.150833,1.469167
BVF,-16.8,178.6
BVG,70.87,29
BVH,-12.694375,-60.098269
BVI,-25.97,139.3
BVK,-13.55,-63.8
BVL,-13.58,-63.62
BVM,-15.85,-38.9
BVO,36.77,-96
BVP,-5.383,141.7
BVR,14.87,-24.73
BVS,-1.667,-50.47
BVU,65.17,-152.1
BVW,-12.45,143.3
BVX,35.77,-91.65
BVY,42.584167,-70.916528
BVZ,-17.98,125.5
BWA,27.505703,83.41625
BWB,-20.864444,115.406111
BWC,32.98,-115.5
BWD,31.8,-98.95
BWE,52.319167,10.556111
BWF,54.131167,-3.263667
BWG,36.964517,-86.419681
BWH,5.3,100.3
BWI,39.175361,-76.668333
BWJ,-6.4,146.9
BWK,43.28,16.68
BWL,36.8,-97.28
BWM,46.13,-103.6
BWN,4.9442,114.928353
BWO,51.87,47.75
BWP,-3.083,141.1
BWQ,-29.97,146.8
BWS,48.97,-122.8
BWT,-41,145.7
BWU,-33.924444,150.988333
BWW,22.62,-79.15
BWY,52.1,1.317
BXA,30.78,-89.87
BXB,-2.532242,133.438894
BXC,42.48,-71.53
BXD,-7.167,139.6
BXE,14.847256,-12.468264
BXF,-17.55,128.3
BXG,-36.73,144.3
BXH,46.88,75.02
BXI,9.517,-6.483
BXJ,46.88,75.02
BXK,33.37,-112.6
BXL,-16.93,177.4
BXM,-2.283,139.6
BXN,37.13,27.67
BXO,46.97,8.433
BXR,29.084169,58.450042
BXS,33.25,-116.3
BXT,0.1333,117.5
BXU,8.951322,125.477972
BXV,64.8,-13.83
BXX,9.967,43.12
BXZ,-5.717,147.9
BYA,64.08,-141.1
BYB,25.62,56.25
BYC,-21.960925,-63.651669
BYD,14.13,46.55
BYF,49.97,2.693
BYG,44.35,-106.7
BYH,35.964347,-89.943956
BYI,42.53,-113.8
BYK,7.7388,-5.073667
BYL,7.367,-10
BYM,20.396331,-76.621494
BYN,46.33,100.7
BYO,-21.23,-56.46
BYQ,3.467,117.9
BYR,55.58,12.13
BYS,35.28,-116.6
BYT,51.68,-9.45
BYU,49.984428,11.638569
BYW,48.58,-122.8
BYX,-13.2,136.2
BZA,13.95,-84.6
BZB,-11.35,40.35
BZC,-22.77,-41.95
BZD,-34.63,143.6
BZE,17.539144,-88.308203
BZF,40.58,-122.4
BZG,53.5,18
BZH,-16.82,28.35
BZI,39.619258,27.925958
BZK,53.214194,34.176447
BZL,22.801031,90.301164
BZM,51.5,4.283
BZN,45.777464,-111.152981
BZO,46.460194,11.326383
BZP,-15.22,144.6
BZR,43.323522,3.353903
BZS,-22.770972,-41.962861
BZT,29.05,-95.57
BZU,2.818347,24.793706
BZV,-4.2517,15.253031
BZY,47.75,27.93
BZZ,51.749964,-1.583617
CAA,14.88,-85.88
CAB,-5.596992,12.188353
CAC,-25.000339,-53.500764
CAD,44.27,-85.42
CAE,33.938833,-81.119528
CAF,-4.9,-66.92
CAG,39.251469,9.054283
CAH,9.167,105.2
CAI,30.121944,31.405556
CAJ,6.231989,-62.854433
CAK,40.916083,-81.442194
CAL,55.42,-5.6
CAM,-20.02,-63.57
CAN,23.392436,113.298786
CAO,36.45,-103.2
CAP,19.732989,-72.194739
CAQ,7.6,-75.25
CAR,46.8715,-68.017917
CAS,33.57,-7.667
CAT,24.45,-75.5
CAU,-8.283,-35.97
CAV,-11.88,22.93
CAW,-21.698333,-41.301669
CAX,54.9375,-2.809167
CAY,4.819808,-52.360447
CAZ,-31.538333,145.793889
CBA,57.72,-135.2
CBB,-17.421058,-66.177114
CBC,-18.67,125.4
CBD,9.167,92.78
CBE,39.6,-78.77
CBF,41.27,-95.87
CBG,52.205,0.175
CBH,31.645744,-2.269861
CBI,-40.33,148.2
CBJ,17.928981,-71.644769
CBK,39.42,-101.1
CBL,8.121898,-63.537353
CBM,33.643833,-88.443833
CBN,-6.75,108.5
CBO,7.2,124.2
CBP,40.15,-8.467
CBQ,4.976019,8.347197
CBR,-35.306944,149.195
CBS,10.38,-71.47
CBT,-12.45,13.48
CBU,51.72,14.35
CBV,15.468958,-90.406742
CBW,-24,-52.36
CBX,-33.064444,147.209167
CBY,-19.63,140.9
CBZ,55.38,-132.4
CCA,35.28,-94.23
CCB,34.08,-117.6
CCC,22.5,-78.5
CCD,34.06,-118.4
CCE,18.07,-63.03
CCF,43.215978,2.306317
CCG,31.4,-102.4
CCH,-46.583341,-71.687405
CCI,-27.25,-52.03
CCJ,11.136839,75.9553
CCK,-12.188333,96.833889
CCL,-26.78,150.6
CCM,-28.725817,-49.424739
CCN,34.53,65.27
CCO,4.567,-71.33
CCP,-36.77265,-73.063106
CCQ,-12.6,-38.97
CCR,37.98,-122.1
CCS,10.603117,-66.990583
CCT,-37.85,-67.87
CCU,22.654739,88.446722
CCV,-16.2,167.5
CCW,-33.67,136.9
CCX,-16.1,-57.65
CCY,43.07,-92.67
CCZ,25.417108,-77.88085
CDA,-12.9,132.5
CDB,55.206061,-162.725436
CDC,37.700967,-113.098847
CDD,15.32,-83.6
CDE,8.233,-77.33
CDF,46.75,12.33
CDG,49.012779,2.55
CDH,33.62,-92.77
CDI,-20.84,-41.19
CDJ,-8.348347,-49.301528
CDK,29.13,-83.03
CDL,65.9,-161.9
CDN,34.27,-80.6
CDO,-32.13,25.6
CDP,14.509961,78.772833
CDQ,-18.3,142.3
CDR,42.83,-103.1
CDS,34.42,-100.2
CDU,-34.040278,150.687222
CDV,60.491778,-145.477556
CDW,40.87,-74.28
CDY,7.017,118.5
CDZ,36.53,-6.3
CEA,37.65,-97.25
CEB,7.165242,124.209619
CEC,41.780158,-124.236533
CED,-32.13,133.7
CEE,59.28,38.07
CEF,42.194014,-72.534783
CEG,53.178056,-2.977778
CEH,-10.55,33.8
CEI,19.952342,99.882928
CEJ,51.5,31.3
CEK,55.305836,61.503333
CEL,24.95,-76.45
CEM,65.57,-144.8
CEN,27.392639,-109.833111
CEO,-13.33,14.5
CEP,-16.23,-62.08
CEQ,43.54205,6.953478
CER,49.650106,-1.470281
CES,-32.7875,151.341667
CET,47.082136,-0.877064
CEU,34.67,-82.88
CEV,39.63,-85.13
CEW,30.778833,-86.522111
CEX,65.05,-146.1
CEY,36.67,-88.37
CEZ,37.32,-108.6
CFA,58.22,-157.5
CFB,-22.93,-42.08
CFC,-26.79,-50.94
CFD,30.67,-96.37
CFE,45.786661,3.169169
CFF,-12.78,15.72
CFG,22.15,-80.414167
CFH,-26.52,139.5
CFI,-17.15,131.4
CFK,36.21,1.332
CFN,55.05,-8.333
CFO,-10.63,-51.57
CFP,-18.78,144.4
CFQ,49.04,-116.5
CFR,49.173333,-0.45
CFS,-30.320556,153.116389
CFT,32.95,-109.2
CFU,39.601944,19.911667
CFV,37.03,-95.62
CGA,55.48,-133.2
CGB,-15.652931,-56.116719
CGC,-5.45,148.4
CGD,29.03,111.7
CGE,38.55,-76.03
CGF,41.565125,-81.486356
CGG,14.58,121
CGH,-23.626692,-46.655375
CGI,37.225317,-89.570753
CGJ,-12.53,27.87
CGK,-6.133,106.7
CGM,9.253525,124.707075
CGN,50.865917,7.142744
CGO,34.519672,113.840889
CGP,22.249611,91.813286
CGQ,43.996214,125.685356
CGR,-20.468667,-54.6725
CGS,39,-76.92
CGT,20.45,-12.37
CGU,8.583,-64.22
CGV,-32.27,125.5
CGX,41.85,-87.6
CGY,8.415619,124.611219
CGZ,32.88,-111.8
CHA,35.035278,-85.203808
CHB,35.42,74.08
CHC,-43.489358,172.532225
CHD,33.32,-111.9
CHE,51.95,-10.22
CHF,35.13,128.7
CHG,41.6,120.4
CHH,-6.201806,-77.856064
CHI,41.78,-87.75
CHJ,-20.2,32.63
CHK,35.03,-97.97
CHL,44.5,-114.2
CHM,-9.149614,-78.52385
CHN,36.7166,127.499119
CHO,38.138639,-78.452861
CHP,65.47,-144.6
CHQ,35.531747,24.149678
CHR,46.862194,1.730667
CHS,32.898647,-80.040528
CHT,-43.81,-176.457222
CHU,61.67,-159.3
CHV,41.73,-7.467
CHW,39.85,98.42
CHX,9.458636,-82.516806
CHY,-6.7,156.5
CHZ,42.58,-121.9
CIA,41.799361,12.594936
CIB,33.37,-118.4
CIC,39.8,-121.9
CID,41.884694,-91.710806
CIE,-33.35,116.2
CIF,42.33,119
CIG,40.5,-107.6
CIH,36.18,113.1
CIJ,-11.040436,-68.782972
CIK,66.65,-143.8
CIL,64.9,-163.7
CIM,6.483,-74.03
CIN,42.05,-94.78
CIO,-23.43,-57.42
CIP,-13.55,32.6
CIQ,14.8,-89.55
CIR,37,-89.18
CIS,-2.768122,-171.710394
CIT,42.364167,69.478889
CIU,46.250753,-84.472386
CIV,55.22,-132.2
CIW,12.699042,-61.342431
CIX,-6.787475,-79.828097
CIY,37,14.6
CIZ,-4.083,-63.13
CJA,-7.133,-78.5
CJB,11.030031,77.043383
CJC,-22.498175,-68.903575
CJD,2.067,-74.58
CJH,51.83,-124
CJI,38.98,-3.917
CJJ,36.72,127.5
CJL,35.886592,71.800578
CJM,10.7112,99.361706
CJN,32.8,-117
CJS,31.636133,-106.428667
CJT,16.17,-92.05
CJU,33.511306,126.493028
CKA,42.75,-95.55
CKB,39.296639,-80.228083
CKC,49.42,32
CKD,61.87,-158.1
CKE,39.03,-122.8
CKG,29.719217,106.641678
CKH,70.63,147.9
CKI,-11.08,132.5
CKK,36.28,-91.5
CKL,66.25,33.75
CKM,34.2,-90.57
CKN,47.85,-96.62
CKO,-23.15,-50.6
CKR,48.6,-123
CKS,-6.117806,-50.003472
CKT,36.501178,61.064903
CKU,60.54,-145.7
CKV,36.62,-87.42
CKX,64.08,-141.9
CKY,9.576889,-13.611961
CKZ,40.137722,26.426777
CLA,23.43,91.18
CLB,53.87,-9.283
CLC,29.55,-95.13
CLD,33.13,-117.3
CLE,41.411689,-81.849794
CLG,36.15,-120.4
CLH,-31.83,149.7
CLI,44.62,-88.77
CLJ,46.785167,23.686167
CLK,35.54,-98.93
CLL,30.588583,-96.363833
CLM,48.120194,-123.499694
CLN,-7.320444,-47.458667
CLO,3.543222,-76.381583
CLP,58.85,-158.5
CLQ,19.277011,-103.577397
CLR,33.13,-115.5
CLS,46.68,-123
CLT,35.214,-80.943139
CLU,39.261919,-85.896344
CLV,-17.72,-48.6
CLW,27.97,-82.8
CLX,-25.33,-57.67
CLY,42.530753,8.793189
CLZ,8.924656,-67.417094
CMA,-28.03,145.622222
CMB,7.180756,79.884117
CMC,-2.9,-40.83
CMD,-34.623889,148.028056
CME,18.653739,-91.799017
CMF,45.63805,5.880225
CMG,-19.011931,-57.673053
CMH,39.997972,-82.891889
CMI,40.03925,-88.278056
CMJ,23.25,119.4
CMK,-14.3,35.13
CML,-19.92,138.1
CMM,17.5,-90.17
CMN,33.367467,-7.589967
CMO,5.367,48.52
CMP,-9.333,-50.33
CMQ,-22.773056,147.620556
CMR,48.109853,7.359011
CMS,10.5,50.45
CMT,-2.25,-49.5
CMU,-5.983,145
CMV,-36.75,175.5
CMW,21.420428,-77.847433
CMX,47.168417,-88.489061
CMY,43.96,-90.74
CMZ,-17.82,35.33
CNA,30.98,-110.3
CNB,-30.983333,148.375556
CNC,-10.05,143.1
CND,44.362222,28.488333
CNE,38.42,-105.1
CNF,-19.63375,-43.968856
CNG,45.658333,-0.3175
CNH,43.37,-72.37
CNI,39.27,122.5
CNJ,-20.668611,140.504444
CNK,39.55,-97.65
CNL,57.48,10.22
CNM,32.337472,-104.263278
CNN,56.87,124.9
CNO,34.02,-117.7
CNP,70.73,-22.65
CNQ,-27.445503,-58.761864
CNR,-26.332542,-70.607308
CNS,-16.885833,145.755278
CNT,-27.22,-61.22
CNU,37.68,-95.45
CNV,-15.63,-38.87
CNW,31.55,-97.17
CNX,18.766847,98.962644
CNY,38.77,-109.8
CNZ,-13.68,19.88
COA,38.03,-120.4
COB,-15.67,131
COC,-31.296944,-57.996631
COD,44.52,-109
COE,47.77,-116.8
COF,28.234922,-80.610125
COG,5.1,-76.62
COH,26.330508,89.467203
COI,28.13,-80.63
COJ,-31.3325,149.267222
COK,9.947386,76.273081
COL,56.62,-6.617
COM,31.83,-99.43
CON,43.2,-71.53
COO,6.357228,2.384353
COP,42.72,-74.93
COQ,48.07,114.5
COR,-31.323619,-64.207953
COS,38.805805,-104.700778
COT,28.43,-99.23
COU,38.818094,-92.219631
COV,40.28,-7.5
COW,-32.8,-70.63
COX,24.158933,-77.589758
COY,-21.8,117.8
COZ,18.9,-70.72
CPA,4.383,-7.7
CPB,8.633,-77.33
CPC,-40.075383,-71.137294
CPD,-29.04,134.720833
CPE,19.816794,-90.500314
CPF,-7.183,111.5
CPG,-40.8,-62.98
CPH,55.617917,12.655972
CPI,-5.433,152.1
CPL,3.7,-75.75
CPM,33.9,-118.2
CPN,-10.18,148.4
CPO,-27.15,-70.47
CPQ,-22.9,-47.1
CPR,42.908,-106.464417
CPS,38.57,-90.17
CPT,-33.964806,18.601667
CPU,-1.8,-44.87
CPV,-7.269917,-35.896364
CPX,18.32,-65.3
CQA,-13.57,-52.27
CQD,32.3,50.84
CQF,50.962097,1.954764
CQP,-18.2,147.5
CQS,-10.87,-61.95
CQT,2.152175,-74.76635
CRA,44.318139,23.888611
CRB,-29.52,148.6
CRC,4.758181,-75.955753
CRD,-45.785347,-67.465508
CRE,33.7,-78.97
CRF,4.933,15.9
CRG,30.33,-81.5
CRH,-27.65,152
CRI,22.745561,-74.182353
CRJ,-31.9,132.3
CRK,10,121
CRL,50.459197,4.453817
CRM,12.502417,124.635778
CRN,57.65,-4.05
CRO,36.1,-119.6
CRP,27.770361,-97.501222
CRQ,-17.652283,-39.253069
CRR,-29.87,-61.83
CRS,32.1,-96.47
CRT,33.13,-91.97
CRU,12.47,-61.47
CRV,38.997225,17.080169
CRW,38.373147,-81.593189
CRX,34.9,-88.6
CRY,-15.7,128.5
CRZ,39.083333,63.613333
CSA,56.08,-6.167
CSB,45.42,22.253333
CSC,10.42,-85.12
CSD,-17.97,135.9
CSE,38.87,-107
CSF,49.253547,2.519139
CSG,32.516333,-84.938861
CSH,65.13,35.65
CSI,-28.882778,153.066944
CSJ,10.35,107.1
CSK,12.4102,-16.746125
CSL,35.32,-120.7
CSM,35.52,-98.98
CSN,39.2,-119.7
CSO,51.85,11.42
CSP,58.2,-136.6
CSQ,41.07,-94.37
CSR,5.833,-68.13
CSS,-19.15,-51.75
CST,-17.62,177.1
CSU,-22.93235,-43.719092
CSV,35.951292,-85.084978
CSW,-13.17,-61.08
CSX,28.189158,113.219633
CSY,56.090269,47.34725
CSZ,-37.43,-67.88
CTA,37.466781,15.0664
CTB,48.608353,-112.376144
CTC,-28.593214,-65.750925
CTD,7.967,-80.43
CTE,9.317,-79.1
CTF,15.01,-91.5
CTG,10.442381,-75.512961
CTH,39.97,-75.82
CTI,-15.17,19.17
CTK,43.3,-96.58
CTL,-26.413334,146.2625
CTM,18.504667,-88.326847
CTN,-15.444722,145.184444
CTO,40.92,-72.75
CTP,-1.25,-46.02
CTQ,-18.83,-50.13
CTR,-17.58,131
CTS,42.7752,141.692283
CTT,43.252506,5.785189
CTU,30.578528,103.947086
CTW,34.73,-112
CTX,42.6,-76.17
CTY,29.65,-83.12
CTZ,35,-78.33
CUA,25.05,-111.7
CUB,33.95,-81.12
CUC,7.927567,-72.511547
CUD,-26.8,153.2
CUE,-2.889467,-78.984397
CUF,44.547019,7.623217
CUG,-33.3,148.7
CUH,35.98,-96.77
CUI,4.667,-72
CUJ,11.88,120
CUK,17.77,-88
CUL,24.764547,-107.474717
CUM,10.450333,-64.130472
CUN,21.036528,-86.877083
CUO,1.033,-71.23
CUP,10.660014,-63.261681
CUQ,-13.78,143.1
CUR,12.188853,-68.959803
CUS,31.83,-107.6
CUT,-38.939683,-69.264642
CUU,28.702875,-105.964567
CUV,8.767,-72.55
CUW,58.35,-133.8
CUX,27.72,-97.51
CUY,-27.45,117.9
CUZ,-13.535722,-71.938781
CVA,40.35,-79.93
CVB,-4.8,144.7
CVC,-33.709722,136.504722
CVE,9.400925,-75.691317
CVF,45.5,6.667
CVG,39.048836,-84.667822
CVH,-37.92,-71
CVI,-46.43,-67.52
CVJ,18.834764,-99.2613
CVL,-9.7,150.1
CVM,23.703336,-98.956486
CVN,34.42,-103.1
CVO,44.497194,-123.289831
CVQ,-24.880556,113.672222
CVR,34.02,-118.4
CVS,34.382775,-103.322147
CVT,52.369722,-1.479722
CVU,39.7,-31.1
CWA,44.77,-89.67
CWB,-25.528475,-49.175775
CWC,48.259322,25.980831
CWF,30.21,-93.15
CWG,32.83,-84.88
CWI,41.83,-90.35
CWL,51.396667,-3.343333
CWO,32.78,-98.06
CWP,33.77,72.37
CWR,-27.72,138.3
CWS,47.6,-122.3
CWT,-33.844722,148.648889
CWW,-35.994722,146.356667
CWX,32.25,-109.9
CXA,7.626078,-66.164917
CXB,21.452194,91.963889
CXC,61.57,-144.4
CXF,67.27,-150.2
CXH,49.3,-123.1
CXI,1.986161,-157.349778
CXJ,-29.197064,-51.187536
CXL,32.669502,-115.51333
CXN,11.83,49.95
CXO,30.351833,-95.414467
CXP,-7.733,109
CXQ,-18.92,125.9
CXR,11.99,109.2
CXT,-20.043056,146.273056
CXY,24.3,-75.45
CYA,20.545994,-100.88655
CYB,19.686981,-79.882789
CYC,17.7,-88.03
CYE,41.2,-75.82
CYF,60.2,-164.2
CYG,-36.182778,147.887778
CYI,23.461779,120.39283
CYL,15.48,-86.68
CYM,57.51,-134.9
CYO,21.616453,-81.545989
CYP,12.072706,124.545092
CYR,-34.17,-57.5
CYS,41.155722,-104.811839
CYT,60.08,-142.5
CYU,10.85,121
CYW,20.55,-100.9
CYX,68.75,161.4
CYZ,16.92,121.8
CZA,20.641294,-88.446219
CZB,-28.63,-53.5
CZC,61.95,-145.3
CZE,11.414867,-69.681656
CZF,61.73,-166
CZH,18.33,-88.5
CZJ,9.017,-77.98
CZK,45.67,-121.9
CZL,36.276028,6.620386
CZM,20.522403,-86.925644
CZN,62.08,-142.1
CZO,62.57,-144.7
CZP,55.97,-133.8
CZS,-7.599906,-72.769489
CZT,28.52,-99.87
CZU,9.332742,-75.285594
CZW,50.885,19.204722
CZX,31.75,120
CZY,-24.5,139.5
CZZ,2.367,9.817
DAA,38.72,-77.18
DAB,29.179917,-81.058056
DAC,23.843333,90.397781
DAD,16.043917,108.19937
DAE,27.5,94.33
DAF,-4.733,145
DAG,34.85,-116.8
DAH,13.87,46.13
DAI,27.03,88.27
DAJ,-9.433,142.5
DAK,25.41,29
DAL,32.847111,-96.851778
DAM,33.410636,36.514267
DAN,36.572861,-79.336111
DAO,-8.417,147.8
DAP,29.67,80.5
DAR,-6.878111,39.202625
DAS,42.18,-119.7
DAT,36.93,101.7
DAU,-9.083,143.2
DAV,8.391003,-82.434992
DAX,31.3,107.5
DAY,39.902375,-84.219375
DAZ,38.47,70.88
DBA,28.88,64.43
DBB,30.92,28.46
DBD,23.8,86.45
DBM,10.28,37.77
DBN,32.55,-82.98
DBO,-32.216667,148.574722
DBP,-6.283,141.9
DBQ,42.402,-90.709472
DBS,44.17,-112.2
DBT,11.97,38
DBU,7.851,80.65
DBV,42.561353,18.268244
DBY,-27.155278,151.267222
DCA,38.852083,-77.037722
DCF,15.336719,-61.392211
DCI,39.354222,8.972481
DCK,66.93,-156.9
DCM,43.55625,2.289183
DCN,-17.58,123.8
DCR,40.83,-84.93
DCT,22.18,-75.73
DCU,34.6,-86.98
DDC,37.763447,-99.965606
DDG,40.2,124.3
DDI,-20.17,148.2
DDM,-8.75,147.5
DDN,-16.92,141.3
DDP,18.5,-66.25
DDU,26.73,67.78
DEA,30.08,70.73
DEB,47.488917,21.615333
DEC,39.834564,-88.865689
DED,30.189689,78.180256
DEF,32.43,48.38
DEH,43.32,-91.83
DEI,-3.8,55.67
DEL,28.5665,77.103088
DEM,8.55,34.87
DEN,39.861656,-104.673178
DEO,42.3,-83.23
DEP,17.38,78.47
DER,-6.1,146.8
DES,-5.696697,53.655844
DET,42.409195,-83.009861
DEZ,35.285374,40.175961
DFI,41.28,-84.37
DFP,-16,143
DFW,32.896828,-97.037997
DGA,17.18,-88.58
DGB,58.08,-152.8
DGC,8.233,43.58
DGD,-27.82,117.3
DGE,-32.5625,149.611111
DGF,10,-120.2
DGG,-2.533,140.7
DGK,-22.18,35.42
DGL,31.33,-109.5
DGM,23.03,113.7
DGN,37.5,77.47
DGO,24.124194,-104.528014
DGP,55.93,29.68
DGR,-35.93,173.9
DGT,9.333714,123.300472
DGU,12.47,-3.483
DGW,42.75,-105.4
DHA,26.265417,50.152027
DHD,-27.07,141.9
DHF,24.248249,54.547722
DHI,28.25,80.67
DHL,13.73,44.72
DHM,17.38,78.47
DHN,31.321339,-85.449628
DHR,52.923353,4.780625
DHT,36.07,102.5
DIB,27.48,94.9
DIC,-8.55,125.6
DIE,-12.3494,49.291747
DIG,27.79,99.68
DIJ,47.26889,5.09
DIK,46.8,-102.8
DIL,-8.546553,125.524719
DIM,6.65,-4.7
DIN,21.38,103
DIO,65.75,-169
DIP,12.05,1.783
DIQ,-10.88,-52.17
DIR,9.6247,41.854203
DIS,-4.217,12.5
DIU,20.72,70.92
DIV,5.833,-5.367
DIW,5.991,80.73
DIY,37.893897,40.201019
DJA,9.7,1.667
DJB,-1.638017,103.644378
DJE,33.875031,10.775461
DJG,24.292767,9.452444
DJJ,-2.576953,140.516372
DJM,-2.533,14.75
DJN,64.03,-145.7
DJO,6.792808,-6.473189
DJU,64.67,-14.17
DKI,-17.93,146.2
DKK,42.48,-79.33
DKR,14.739708,-17.490225
DKS,73.52,80.37
DKV,-24.87,129.1
DLA,4.006081,9.719481
DLB,-8.45,118.8
DLC,38.965667,121.5386
DLD,60.416667,8.512778
DLE,47.039014,5.42725
DLF,29.359486,-100.777975
DLG,59.044667,-158.5055
DLH,46.842091,-92.193649
DLI,11.75,108.4
DLK,-29.02,139.5
DLL,34.42,-79.37
DLM,36.713056,28.7925
DLN,45.22,-112.6
DLO,55.13,-132.1
DLS,45.6,-121.2
DLU,25.67,100.3
DLV,-12.42,130.3
DLY,-18.7,169.2
DLZ,43.78,104.5
DMA,32.166467,-110.883144
DMB,42.853611,71.303611
DMD,-17.940278,138.821667
DME,55.408786,37.906314
DMK,13.91,100.6
DMM,26.471161,49.79789
DMN,32.262306,-107.72064
DMO,38.83,-93.42
DMR,14.53,44.43
DMT,-14.42,-56.45
DMU,25.9,93.73
DNA,26.355612,127.767633
DNB,-16.08,142.4
DNC,7.267,-8.15
DND,56.452499,-3.025833
DNE,33.17,-97.05
DNF,32.55,22.77
DNG,55.044192,-8.341
DNH,40.2,94.68
DNI,14.38,33.53
DNK,48.357222,35.100556
DNL,33.47,-82.04
DNM,-25.92,113.5
DNN,34.72,-84.87
DNO,-11.62,-46.85
DNP,28.12,82.32
DNQ,-35.55,145
DNR,48.587683,-2.079958
DNS,41.98,-95.38
DNT,33.72,-117.9
DNU,-6.15,146.7
DNV,40.2,-87.58
DNX,12,35.5
DNZ,37.785567,29.701297
DOA,-14.37,49.52
DOB,-5.767,134.2
DOC,57.88,-4.083
DOD,-6.170436,35.752578
DOE,4.017,-55.48
DOF,55.2,-132.3
DOG,19.153867,30.430094
DOH,25.261125,51.565056
DOI,-10.72,150.7
DOK,48.073611,37.739722
DOL,49.365339,0.154306
DOM,15.547028,-61.3
DON,17.63,-89.67
DOO,-9.5,147.8
DOP,29,82.82
DOR,14.03,-0.03333
DOS,-5.55,155
DOU,-22.2,-54.87
DOV,39.129539,-75.465958
DOX,-29.25,114.9
DOY,37.55,118.5
DPA,41.9,-88.25
DPE,49.93,1.083
DPG,40.2,-112.9
DPK,40.77,-73.33
DPL,8.601261,123.334481
DPO,-41.169722,146.430278
DPS,-8.75,115.2
DPU,-5.833,145.8
DRA,40.97,-117.7
DRB,-17.37,123.7
DRC,-17.97,20.78
DRD,-16.52,142.4
DRE,46.02,-83.75
DRF,60.58,-152.2
DRG,66.08,-162.8
DRH,-3.25,138.6
DRI,30.831722,-93.339917
DRJ,5.483,-54.05
DRM,41.15,24.13
DRN,-28.5,148.3
DRO,37.15,-107.8
DRR,-25.6,140.3
DRS,51.132767,13.767161
DRT,29.37,-100.9
DRU,46.62,-113.2
DRW,-12.414722,130.876667
DRY,-15.67,126.4
DSA,53.48,-1.004
DSC,5.833,10.08
DSD,16.33,-61.02
DSE,11.07,39.72
DSG,12.07,124.6
DSI,30.38,-86.53
DSK,31.909422,70.896639
DSL,8,-10.8
DSM,41.533972,-93.663083
DSN,39.85,110
DSV,43.05,-76.15
DTA,39.38,-112.5
DTD,0.7167,116.5
DTE,14.13,123
DTH,36.5,-117
DTL,46.83,-95.88
DTM,51.518314,7.612242
DTN,32.54,-93.75
DTR,47.6,-122.3
DTT,42.25,-83.38
DTW,42.212444,-83.353389
DUA,44.63,-91.97
DUB,53.421333,-6.270075
DUC,34.47,-97.97
DUD,-45.928055,170.198333
DUE,-7.4,20.82
DUF,36.25,-75.78
DUG,31.47,-109.6
DUI,51.47,6.75
DUJ,41.178267,-78.898697
DUK,-28.37,32.23
DUM,1.609194,101.433558
DUN,76.57,-68.8
DUQ,48.78,-123.7
DUR,-29.970089,30.950519
DUS,51.289453,6.766775
DUT,53.900139,-166.5435
DVA,45.88,22.92
DVK,64.51,-110.3
DVL,48.12,-98.9
DVN,41.53,-90.68
DVO,7.125522,125.645778
DVP,-24.17,141.1
DVR,-13.75,130.7
DVT,33.68,-112.1
DVX,39.13,-75.47
DWA,-13,34.13
DWB,-16.1,45.37
DWD,24.48,44.37
DWF,39.59,-84.22
DWH,30.06,-95.55
DWN,35.4,-97.62
DWS,28.53,-81.35
DXA,44.98,6.15
DXB,25.252778,55.364444
DXD,-15.17,143.7
DXR,41.38,-73.45
DYA,-22.622222,148.363889
DYG,29.13,110.5
DYL,40.32,-75.13
DYM,-23.87,141.3
DYR,64.73495,177.741483
DYS,32.420756,-99.8546
DYU,38.543333,68.825
DYW,-16.27,133.4
DZA,-12.804722,45.281113
DZI,9.6,-73.45
DZN,47.708333,67.733333
DZO,-33.358867,-56.499172
DZU,29.7,105.8
EAA,64.77,-141.2
EAB,15.3,43.97
EAE,-17.07,168.4
EAL,8.717,167.7
EAM,17.611436,44.419169
EAN,42.05,-104.9
EAP,47.6,7.533
EAR,40.73,-99.02
EAS,43.356519,-1.790611
EAT,47.4,-120.2
EAU,44.865806,-91.484256
EBA,42.760277,10.239445
EBB,0.042386,32.443503
EBD,13.153219,30.232675
EBG,7.596469,-74.808942
EBJ,55.525942,8.553403
EBL,36.23,43.97
EBM,31.704281,9.254619
EBN,9.333,166.8
EBO,4.667,168.7
EBR,30.53,-91.15
EBS,42.47,-93.8
EBU,45.540554,4.296389
EBW,2.85,11.18
ECA,-50.280322,-72.053103
ECG,36.260581,-76.174572
ECH,-36.157222,144.761944
ECN,35.15,33.5
ECO,-1.617,-73.23
ECR,2.5,-78
ECS,43.88,-104.3
EDA,55.95,-133.7
EDB,18.25,31.25
EDD,-25.25,133.2
EDE,36.07,-76.65
EDF,61.250986,-149.806503
EDG,39.39,-76.29
EDI,55.95,-3.3725
EDK,37.77,-96.87
EDL,0.404458,35.238928
EDM,46.701944,-1.378625
EDO,39.58,27.03
EDQ,14.13,-88.42
EDR,-14.9,141.6
EDW,34.905417,-117.883739
EED,34.85,-114.6
EEK,60.22,-162
EEN,42.898397,-72.270781
EFB,58,-135.7
EFD,29.6,-95.15
EFG,-9.15,147.7
EFK,44.88,-72.23
EFL,38.120069,20.500481
EFO,42.68,-94.2
EFW,42.02,-94.38
EGA,-6.917,146.1
EGC,44.825279,0.518611
EGE,39.642556,-106.917694
EGI,30.65,-86.52
EGL,5.283,39.7
EGM,-8.567,157.9
EGN,13.48,22.45
EGO,50.643764,36.590125
EGP,28.87,-100.5
EGS,65.283333,-14.401389
EGV,45.93,-89.27
EGX,58.22,-157.4
EHD,34.98,-122
EHL,-41.943189,-71.532289
EHM,58.646428,-162.062778
EHT,41.77,-72.65
EIA,-8.2,147.9
EIB,50.992797,10.472711
EIE,58.47,92.12
EIH,-18.5,144.1
EIK,63.2,38.21
EIL,64.665667,-147.1015
EIN,51.450139,5.374528
EIS,18.444834,-64.542975
EIY,30.63,35.17
EJA,7.024331,-73.8068
EJH,26.198553,36.476381
EJT,6.083,172
EKA,40.8,-124.1
EKB,51.58,75.22
EKD,-21.03,135.3
EKE,6.667,-60.85
EKI,41.72,-85.98
EKN,38.889444,-79.857139
EKO,40.824917,-115.791694
EKS,49.18,142.1
EKT,59.351078,16.7084
EKX,37.7,-85.87
ELA,29.58,-96.33
ELB,9.05,-73.97
ELC,-12.019444,135.570556
ELD,33.220972,-92.813278
ELE,8.117,-77.72
ELF,13.614892,25.32465
ELG,30.571294,2.859586
ELH,25.474861,-76.683489
ELI,64.62,-162.3
ELJ,2,-74.13
ELK,35.4,-99.42
ELL,-23.67,27.62
ELM,42.159889,-76.891611
ELN,47.03,-120.5
ELO,-26.4,-54.63
ELP,31.80725,-106.377583
ELQ,26.302822,43.773911
ELR,-3.817,140.1
ELS,-33.035569,27.825939
ELT,28.209028,33.645517
ELU,33.511397,6.776794
ELV,58.18,-136.3
ELW,60.88,-146.6
ELX,8.883,-64.27
ELY,39.3,-114.9
ELZ,42.12,-77.93
EMA,52.831111,-1.328056
EMB,37.62,-122.4
EMD,-23.5675,148.179167
EME,53.391186,7.227408
EMG,-28.73,31.9
EMI,-1.65,150
EMK,62.77,-164.5
EML,47.09,8.305
EMM,41.85,-110.6
EMN,16.622,-7.316567
EMO,-8.733,147.8
EMP,38.33,-96.18
EMS,-9.367,148.5
EMT,34.1,-118
EMX,-42.07,-71.15
EMY,28.08,30.73
ENA,60.573111,-151.245
ENB,-30.08,115
ENC,48.692069,6.230458
END,36.339167,-97.9165
ENE,-8.833,121.7
ENF,68.362586,23.424322
ENH,30.28,109.3
ENI,10.33,123.8
ENJ,14.1,-90.83
ENK,54.398889,-7.651667
ENL,38.52,-89.08
ENN,64.55,-149.1
ENO,-34.56065,-58.789564
ENQ,14.38,-87.62
ENS,52.27,6.874167
ENT,11.33,162.3
ENU,6.474272,7.561961
ENV,40.73,-114
ENW,42.595708,-87.927803
ENY,36,109.3
ENZ,-37.02,174.8
EOH,6.219958,-75.590519
EOI,59.2,-2.783
EOK,40.47,-91.43
EOR,6.733,-61.58
EOS,36.87,-94.37
EOZ,7.167,-69.53
EPA,-34.61,-58.61
EPG,40.87,-96.13
EPH,47.3,-119.5
EPI,-16.75,168.3
EPK,34.67,32.9
EPL,48.324961,6.069983
EPN,1.367,17.48
EPR,-33.684444,121.822778
EPS,19.23,-69.5
EPT,-5.033,141.7
EPU,58.47,24.5
EQS,-42.90795,-71.139472
ERA,10.62,47.4
ERB,-26.27,132.2
ERC,39.710203,39.527003
ERD,46.73,36.78
ERE,-6.633,144
ERF,50.979811,10.958106
ERH,31.9475,-4.398333
ERI,42.082022,-80.176217
ERM,-27.58,-52.02
ERN,-6.667,-69.83
ERO,52.5,-1.5
ERR,44.78,-71.15
ERS,-22.612239,17.080442
ERT,48.5,101.4
ERU,-8.417,147.1
ERV,29.98,-99.08
ERZ,39.956501,41.170166
ESA,-9.9,151
ESB,40.128082,32.995083
ESC,45.72,-87.08
ESD,48.72,-122.8
ESE,31.795281,-116.602772
ESF,31.394903,-92.295772
ESG,-22.03,-60.62
ESH,50.835556,-0.297222
ESI,-14.93,-42.83
ESK,39.809858,30.519378
ESL,46.373933,44.330872
ESM,0.978519,-79.62665
ESN,38.8,-76.07
ESO,36.1,-106
ESP,41,-75.18
ESR,-26.311128,-69.7652
ESS,51.402333,6.937333
EST,43.4,-94.83
ESU,31.3975,-9.681667
ESW,47.23,-121.2
ETB,43.42,-88.18
ETD,-28.72,138.6
ETE,12.93,36.17
ETH,29.561281,34.960081
ETN,32.42,-98.8
ETS,31.32,-85.85
ETZ,48.982142,6.251319
EUA,-21.37,-174.9
EUC,-31.72,128.9
EUE,39.52,-116
EUF,31.95,-85.13
EUG,44.124583,-123.211972
EUM,54.17,9.983
EUN,27.151667,-13.219167
EUO,11.13,123.9
EUQ,10.78,121.9
EUX,17.496492,-62.979439
EVA,30.35,-94.07
EVD,-18.08,134.9
EVE,68.4913,16.678108
EVG,62.047811,14.42295
EVH,-29.1,153.4
EVM,47.43,-92.5
EVN,40.15,44.4
EVV,38.036997,-87.532364
EVW,41.35,-111
EVX,49.028669,1.219864
EWB,41.676142,-70.956942
EWD,20.504275,45.199556
EWE,-5.483,138.1
EWI,-3.933,136.4
EWK,38.05,-97.35
EWN,35.072972,-77.042944
EWO,-0.8833,14.8
EWR,40.6925,-74.168667
EWY,51.42,-0.2
EXI,58.42,-135.4
EXM,-22.38,114.1
EXT,50.734444,-3.413889
EYK,63.68,66.68
EYL,15.13,-10.57
EYP,5.319114,-72.383975
EYR,38.98,-119.2
EYS,3.25,35.97
EYW,24.556111,-81.759556
EZE,-34.822222,-58.535833
EZS,38.606925,39.291417
EZV,63.92,65.02
FAA,10.035467,-10.769825
FAB,51.275833,-0.776333
FAC,-16.67,-145.3
FAE,62.063628,-7.277219
FAF,37.13,-76.61
FAG,63.88,-16.65
FAH,32.37,62.17
FAI,64.815114,-147.856267
FAJ,18.308889,-65.661861
FAK,57.52,-135.2
FAL,26.58,-99.13
FAM,37.67,-90.23
FAN,58.099486,6.62605
FAO,37.014425,-7.965911
FAQ,-4.617,142
FAR,46.92065,-96.815764
FAS,64.92,-14.07
FAT,36.776194,-119.71814
FAU,22.35,56.49
FAV,-16.05415,-145.656994
FAY,34.991217,-78.880272
FAZ,0.4819,0.8942
FBD,37.08,70.5
FBE,-26.08,-53.07
FBG,35.131828,-78.936694
FBK,46.222644,2.363964
FBL,44.33,-93.32
FBM,-11.591333,27.530889
FBR,41.32,-110.4
FBS,48.54,-123
FBY,40.13,-97.18
FCA,48.310472,-114.256
FCB,-28.823119,27.9089
FCH,36.73,-119.8
FCM,44.83,-93.46
FCN,53.87,8.7
FCO,41.804475,12.250797
FCS,38.69,-104.8
FCT,46.67,-120.5
FCY,34.95,-90.77
FDE,61.4,5.8
FDF,14.591033,-61.003175
FDH,47.671317,9.511486
FDK,39.42,-77.42
FDR,34.35,-98.98
FDU,-3.311319,17.381683
FDY,41.02,-83.67
FEA,60.58,-0.9667
FEB,29.23,81.22
FEC,-12.2,-38.91
FEG,40.38,71.77
FEJ,-8.15,-70.35
FEK,9.6,-5.2
FEL,48.205667,11.267
FEN,-3.854928,-32.423336
FEP,42.27,-89.58
FER,69,-105
FES,36.47,-6.183
FET,41.43,-96.5
FEW,41.13,-104.9
FEZ,33.927261,-4.977958
FFA,36.02,-75.67
FFD,51.682167,-1.790028
FFL,40.93,-91.95
FFM,46.28,-96.17
FFO,39.826111,-84.048332
FFT,38.18,-84.9
FFU,-43.2,-71.82
FGD,22.5,-12.67
FGI,-14.17,-171.7
FGL,-43.4,170
FGR,36.53,-4.633
FGU,-15,-142
FHU,31.588472,-110.344389
FHZ,-16,-140
FIC,55.77,-131.5
FID,41.27,-72.03
FIE,59.5,-1.667
FIG,10.350556,-13.569167
FIH,-4.38575,15.444569
FIK,-25.58,134.6
FIL,38.97,-112.3
FIN,-6.617,147.9
FIV,57.27,-133.6
FIZ,-18.181944,125.558611
FJR,25.112225,56.323964
FKB,48.779353,8.0805
FKH,52.83,0.85
FKI,0.481639,25.337973
FKJ,36.142847,136.223922
FKL,41.38,-79.87
FKN,36.68,-76.92
FKQ,-2.920192,132.267031
FKS,37.227431,140.430678
FLA,1.589189,-75.564372
FLB,-6.833,-43
FLC,-34.98,150.6
FLD,43.77,-88.48
FLE,37.18,-77.51
FLF,54.78,9.383
FLG,35.138454,-111.67122
FLH,58.5,-3
FLI,65.98,-23.7
FLJ,60.02,-148
FLL,26.072583,-80.15275
FLM,-22.35,-60.03
FLN,-27.670489,-48.547181
FLO,34.185361,-79.723889
FLP,36.3,-92.58
FLR,43.809953,11.2051
FLS,-40.08,148
FLT,62.45,-158
FLU,40.78,-73.83
FLV,39.368332,-94.914686
FLW,39.455272,-31.131361
FLX,39.47,-118.8
FLY,-35.65,145.6
FMA,-26.212722,-58.228111
FMC,65.92,-149.8
FME,39.09,-76.76
FMG,10.42,-85.78
FMH,41.57,-70.63
FMI,-5.875556,29.25
FMM,47.99,10.24
FMN,36.75,-108.2
FMO,52.134642,7.684831
FMS,40.65,-91.32
FMU,43.98,-124.1
FMY,26.58,-81.87
FNA,8.616444,-13.195489
FNB,53.602167,13.306
FNC,32.697889,-16.774453
FNE,-8.6,147.2
FNG,12.07,0.35
FNH,9.667,37.35
FNI,43.757444,4.416347
FNJ,39.224061,125.67015
FNK,69.5,-147.6
FNL,40.58,-105.1
FNR,58.25,-134.9
FNT,42.965425,-83.743631
FOA,60.15,-1.15
FOB,39.43,-123.8
FOC,25.935064,119.663272
FOD,42.5512,-94.191842
FOE,38.950944,-95.663611
FOG,41.432917,15.535028
FOK,40.83,-72.62
FOM,5.636919,10.750817
FON,10.4,-84.48
FOO,-0.9333,134.9
FOP,33.61,-82.14
FOR,-3.776283,-38.532556
FOS,-30.838056,128.115
FOT,-32.18,152.5
FOU,-1.2,10.78
FOX,64.85,-147.8
FOY,8.367,-10.22
FPO,26.558686,-78.695553
FPR,27.495056,-80.368278
FPY,30.12,-83.58
FQQ,48.13,16.53
FRA,50.026421,8.543125
FRB,-33.363611,147.935
FRC,-20.58,-47.38
FRD,48.53,-123
FRE,-8.1,159.6
FRF,50.03,8.567
FRG,40.728781,-73.413408
FRH,38.55,-86.62
FRI,39.055275,-96.764453
FRJ,43.42,6.733
FRK,-4.583,55.95
FRL,44.2,12.07
FRM,43.65,-94.42
FRN,61.26,-149.7
FRO,61.5,5.08
FRP,57.83,-135
FRQ,-5.42,141.7
FRR,38.92,-78.18
FRS,16.92,-89.88
FRT,-41.12,-73.05
FRU,42.85,74.58
FRW,-21.15,27.47
FRY,44.02,-70.98
FRZ,51.13,9.28
FSC,41.58,9.25
FSD,43.58,-96.73
FSI,34.65,-98.4
FSK,37.8,-94.77
FSL,-18.2,125.8
FSM,35.33,-94.37
FSN,41.56,-88.66
FSP,46.92,-56.17
FSS,57.65,-3.57
FST,30.92,-102.9
FSU,34.47,-104.3
FTA,-19.53,170.2
FTE,-50.28,-72.05
FTI,-14.22,-169.5
FTK,37.91,-85.97
FTL,61.87,-162
FTU,-25.03,46.95
FTW,32.819778,-97.362444
FTX,-0.53135,15.950094
FTY,33.779139,-84.521361
FUB,-6.15,150.7
FUD,44.38,131.1
FUE,28.452717,-13.863761
FUG,32.87,115.7
FUJ,32.666269,128.832808
FUK,33.585942,130.450686
FUL,33.87,-118
FUM,-6.383,142.4
FUN,-8.517,179.2
FUO,23.13,113.3
FUT,-14.25,-178.2
FVL,-18.28,128.4
FVR,-15.18,127.8
FWA,40.978472,-85.195139
FWH,32.85,-96.85
FWL,62.52,-153.9
FWM,56.82,-5.117
FXE,26.18,-80.17
FXM,70.22,-146
FXO,-14.82,36.53
FXY,43.27,-93.65
FYM,35.15,-86.58
FYN,45,90
FYT,17.917053,19.111078
FYU,66.571492,-145.250417
FYV,36.005094,-94.170059
FZO,51.519444,-2.590833
GAA,9.15,-74.23
GAB,38.87,-117.9
GAC,14.5,-88.53
GAD,33.97,-86.08
GAE,33.83,10
GAF,34.42,8.82
GAG,36.32,-99.75
GAH,-25.62,151.6
GAI,39.13,-77.2
GAJ,38.4,140.4
GAK,62.3,-145.3
GAL,64.72,-156.9
GAM,63.77,-171.8
GAN,0.5,73.27
GAO,20.08,-75.15
GAP,-6.05,146
GAQ,16.32,-0.15
GAR,-7.87,147.1
GAS,0.47,39.63
GAT,44.45,6.02
GAU,26.1,91.57
GAV,-0.45,130.9
GAW,22.17,94.13
GAX,-2.77,9.98
GAY,24.75,84.95
GAZ,-9.23,153
GBA,-16.05,167.4
GBB,26.15,-7.35
GBC,-6.1,141.7
GBD,38.35,-98.87
GBE,-24.55,25.92
GBF,-6.58,144.7
GBG,40.93,-90.43
GBH,68.47,-149.5
GBI,26.67,-78.33
GBJ,15.37,-61.27
GBK,7.8,-12.37
GBL,-11.67,133.4
GBM,3.33,42.18
GBN,41.7,15.73
GBO,39.18,-76.68
GBP,-16.55,143.7
GBQ,26.25,50.65
GBR,42.2,-73.37
GBS,-36.17,175.4
GBT,36.9,54.41
GBU,14.92,35.88
GBV,-16.33,126.4
GBZ,-36.17,175.3
GCA,2.28,-74.95
GCC,44.35,-105.5
GCD,47.92,-119.1
GCH,30.2,50.78
GCI,49.43,-2.6
GCJ,-26.25,28
GCK,37.93,-100.7
GCM,19.28,-81.37
GCN,35.95,-112.2
GCV,-29.94,-50.99
GCW,35.99,-113.8
GCY,36.18,-82.82
GDA,9.33,21.18
GDC,34.85,-82.35
GDD,-18.83,128.5
GDE,6.1,43
GDG,53.47,125.8
GDH,59.75,-158.9
GDI,9.73,21.58
GDJ,-6.73,23.95
GDL,20.67,-103.3
GDM,42.57,-72
GDN,54.4,18.6
GDO,7.23,-70.8
GDP,-6.77,-43.57
GDQ,12.52,37.42
GDT,21.57,-71.17
GDV,47.13,-104.7
GDW,43.98,-84.48
GDX,59.92,150.7
GDZ,44.57,38.02
GEA,-22.27,166.5
GEB,-0.08,129.3
GEC,35.23,33.72
GED,38.68,-75.37
GEE,-41.07,146.8
GEF,-7.57,156.6
GEG,47.62,-117.5
GEI,-4.5,154.2
GEK,62.98,-156.5
GEL,-28.27,-54.27
GEN,37.38,-4.77
GEO,6.77,-58.23
GER,21.92,-82.75
GES,6.5,125.2
GET,-28.78,114.7
GEV,67,20.83
GEW,-9.3,148.5
GEX,-38.13,144.4
GEY,44.52,-108.1
GFA,47.5,-111.2
GFB,59.05,-160.3
GFD,39.78,-85.77
GFE,-33.9,148.2
GFF,-34.25,146.1
GFK,47.95,-97.18
GFL,43.35,-73.62
GFN,-29.67,153
GFO,6.42,-58.58
GFR,48.88,-1.57
GFY,-19.6,18.13
GGC,-14.12,21.43
GGD,-18.7,139.3
GGE,33.32,-79.32
GGG,32.38,-94.72
GGL,8.33,-77.08
GGN,6.13,-5.93
GGO,6.55,-7.48
GGR,8.42,48.48
GGS,-48.77,-70.2
GGT,23.47,-75.82
GGW,48.22,-106.6
GHA,32.38,3.82
GHB,25.15,-76.18
GHC,25.75,-77.85
GHD,9.4,39.27
GHE,8.08,-78.33
GHF,49.65,9.97
GHK,32.12,34.78
GHM,35.78,-87.47
GHN,30.47,106.7
GHT,24.97,10.17
GHU,-33.02,-58.58
GIB,36.15,-5.35
GIC,-9.27,142.2
GID,-3.42,29.92
GIF,28.07,-81.75
GIG,-22.82,-43.25
GII,11.4,-9.18
GIL,35.92,74.38
GIM,-0.02,11.4
GIR,4.28,-74.8
GIS,-38.67,178
GIT,-2.87,32.17
GIU,7.95,80.72
GIY,-22.37,29.98
GIZ,16.93,42.57
GJA,16.5,-85.92
GJL,36.8,5.88
GJM,-10.83,-65.33
GJR,65.98,-21.35
GJT,39.12,-108.5
GKA,-6.05,145.4
GKE,50.95,6.12
GKH,28,84.67
GKL,-23.18,151
GKN,62.17,-145.5
GKO,-0.08,11.47
GKT,35.85,-82.03
GLA,55.88,-4.25
GLB,33.35,-110.7
GLC,6.97,46.42
GLD,39.37,-101.7
GLE,33.62,-97.13
GLF,8.653775,-83.180544
GLG,-24.77,139.6
GLH,33.47,-90.98
GLI,-29.675,151.689444
GLK,6.85,47.27
GLL,60.78,9.05
GLM,-22.28,138.3
GLN,29.02,-10.07
GLO,51.894167,-2.167222
GLP,-5.283,141.5
GLQ,62.12,-145.6
GLR,45.02,-84.7
GLS,29.265322,-94.860406
GLT,-23.869722,151.222778
GLV,64.55,-163
GLW,37.03,-85.95
GLX,-2.183,127.8
GLY,-20.08,119.7
GLZ,51.57,4.917
GMA,3.235369,19.771258
GMB,8.128764,34.563131
GMC,3.633,-71.17
GME,52.527022,31.016692
GMI,-6.3,150.3
GMM,-1.933,15.87
GMN,-42.47,171.2
GMP,37.558311,126.790586
GMR,-23.079861,-134.890333
GMS,-2.133,-44.6
GMT,65.4,-161.3
GMU,34.85,-82.35
GMV,37,-110.2
GMY,52.35,14.55
GMZ,28.02,-17.2
GNA,53.601967,24.053758
GNB,45.362944,5.329375
GND,12.004247,-61.786192
GNE,51.05,3.717
GNF,39.94,-120.9
GNG,42.92,-114.8
GNI,22.673853,121.466481
GNM,-14.22,-42.78
GNN,7.15,40.72
GNR,-39.03,-67.58
GNS,1.166381,97.704681
GNT,35.15,-107.9
GNU,59.12,-161.5
GNV,29.690056,-82.271778
GNY,37.44,38.88
GNZ,-21.7,21.67
GOA,44.413333,8.8375
GOB,7.133,40.13
GOC,-8.417,147.7
GOE,-5.383,151.9
GOF,31.36,-100.5
GOG,-22.5,18.97
GOH,64.190922,-51.678064
GOI,15.380833,73.831422
GOJ,56.230119,43.784042
GOK,35.88,-97.42
GOL,42.42,-124.4
GOM,-1.670814,29.238464
GON,41.330056,-72.045139
GOO,-28.521389,150.320278
GOP,26.73,83.45
GOQ,34.63,98.87
GOR,8.167,35.55
GOS,-33.43,151.4
GOT,57.662836,12.279819
GOU,9.335892,13.370103
GOV,-12.269444,136.818333
GOY,7.337081,81.625881
GOZ,43.151444,25.712889
GPA,38.151111,21.425556
GPB,-25.38,-51.45
GPI,2.570133,-77.8986
GPL,10.22,-83.77
GPN,-11.4,130.4
GPO,-35.696183,-63.758286
GPS,-0.453758,-90.265914
GPT,30.407278,-89.070111
GPZ,47.22,-93.52
GQJ,55.437222,-5.686389
GQQ,40.73,-82.8
GRA,8.2,-73.78
GRB,44.485072,-88.129589
GRC,4.6,-8.167
GRD,34.25,-82.15
GRE,38.88,-89.42
GRF,47.079217,-122.580783
GRG,33.62,69.12
GRH,-10.32,150.7
GRI,40.967542,-98.309639
GRJ,-34.005553,22.378889
GRK,31.06725,-97.828917
GRL,-7.95,147.2
GRM,47.75,-91.33
GRN,42.8,-102.2
GRO,41.900969,2.760547
GRP,-11.67,-49.22
GRQ,53.11972,6.579444
GRR,42.880833,-85.522806
GRS,42.759747,11.071897
GRT,32.57,74.08
GRU,-23.432075,-46.469511
GRV,43.33,45.7
GRW,39.092169,-28.029847
GRX,37.188731,-3.777356
GRY,66.57,-18.02
GRZ,46.991067,15.439628
GSA,5.333,117.2
GSB,35.339383,-77.960589
GSC,-25.05,115.2
GSE,57.774722,11.870372
GSH,41.58,-85.83
GSI,38.1,-5.817
GSL,35.85,-111.5
GSM,26.95,56.28
GSN,-31.87,138.2
GSO,36.09775,-79.937306
GSP,34.895667,-82.218861
GSQ,22.58,28.72
GSR,9.517,49.08
GSS,-25.12,30.8
GST,58.425269,-135.707411
GSU,14.13,35.32
GSY,51.33,0.03333
GTA,-8.75,158.2
GTB,44.055619,-75.719458
GTC,26.78,-77.33
GTE,-14,136.5
GTF,47.482,-111.370689
GTG,45.78,-92.68
GTI,54.38,12.32
GTK,2.6,102.9
GTN,-43.9,170.1
GTO,0.637119,122.849858
GTP,42.51,-123.4
GTR,33.47,-88.38
GTS,-26.97,133.6
GTT,-18.42,143.8
GTW,49,17.67
GTY,39.83,-77.23
GUA,14.583272,-90.527475
GUB,28.67,-114.2
GUC,38.53,-106.9
GUD,16.35,-3.6
GUE,-3.583,141.6
GUF,30.17,-87.58
GUG,-8.1,146.9
GUH,-30.961111,150.250556
GUI,10.574078,-62.312667
GUJ,-22.82,-45.22
GUL,-34.810278,149.726389
GUM,13.48345,144.795983
GUN,32.3,-86.39
GUO,15.08,-86.03
GUP,35.511058,-108.789308
GUQ,9.026944,-69.75515
GUR,-10.33,150.4
GUS,40.648094,-86.152119
GUT,51.922833,8.306333
GUU,64.97,-23.17
GUV,-6.283,142.4
GUW,47.121944,51.821389
GUX,24.48,77.32
GUY,36.68,-101.5
GUZ,-22.82,-40.48
GVA,46.238064,6.10895
GVE,38.15,-78.17
GVI,-3.917,141.2
GVL,34.27,-83.83
GVN,48.93,140.3
GVP,-15.78,144.6
GVR,-18.87,-41.82
GVT,33.13,-96.12
GVW,38.88,-94.53
GVX,60.593333,16.951389
GWA,17.83,94.5
GWD,25.233308,62.329494
GWE,-19.436394,29.861911
GWL,26.293336,78.227753
GWN,-6.567,146.3
GWO,33.494328,-90.084706
GWS,39.53,-107.3
GWT,54.91325,8.340472
GWV,38.35,-81.63
GWW,52.57,13.3
GWY,53.300175,-8.941592
GXF,15.966111,48.7883
GXG,-7.754506,15.287728
GXH,52.2,0.5167
GXQ,-45.594211,-72.106133
GXX,10.35,15.23
GXY,40.33,-104.6
GYA,-10.8,-65.38
GYD,40.38,49.88
GYE,-2.157419,-79.883558
GYI,-1.677203,29.258875
GYL,-16.636944,128.451389
GYM,27.968983,-110.925169
GYN,-16.632033,-49.220686
GYP,-26.282778,152.701944
GYR,33.43,-112.4
GYS,32.4,105.7
GYY,41.616272,-87.412788
GZA,31.25,34.28
GZI,33,68.42
GZM,36.03,14.2
GZO,-8.167,157
GZT,36.947183,37.478683
GZW,36.23,50.03
HAA,70.486675,22.139744
HAB,34.12,-88
HAC,33.115,139.785833
HAD,56.691128,12.820211
HAE,36.22,-112.7
HAF,37.48,-122.5
HAG,52.15,4.283
HAH,-11.533661,43.27185
HAI,43.7,-85.48
HAJ,52.461056,9.685078
HAK,19.934856,110.458961
HAL,-19.97,13.07
HAM,53.630389,9.988228
HAN,21.221192,105.807178
HAO,39.43,-84.5
HAP,-19.17,147.7
HAQ,6.744228,73.170514
HAR,40.3,-76.82
HAS,27.437917,41.686292
HAT,-19.72,140.6
HAU,59.345267,5.208364
HAV,22.989153,-82.409086
HAW,51.833056,-4.961111
HAX,35.67,-95.37
HAY,65.2,-161.2
HAZ,-4.333,145.2
HBA,-42.836111,147.510278
HBB,32.68,-103.2
HBC,57.08,-135.3
HBD,-6.317,142.5
HBE,30.917669,29.696408
HBG,31.32,-89.27
HBH,57.4,-133.5
HBI,25.08,-77.35
HBK,34.94,-110.1
HBL,-28.17,26.77
HBN,12,106
HBO,40.17,-95.95
HBR,35.02,-99.1
HBT,27.900917,45.528194
HBX,15.33,75.23
HCA,32.3,-101.4
HCB,55.46,-131.3
HCC,42.25,-73.78
HCM,8,49.92
HCN,21.93,120.8
HCQ,-18.233889,127.669722
HCR,62.15,-159.8
HCS,-26.2,28.13
HCW,34.7,-79.88
HDA,57.07,-135
HDB,49.42,8.4
HDD,25.3,68.38
HDE,40.43,-99.37
HDF,53.878706,14.152347
HDG,36.53,114.4
HDH,21.579475,-158.197281
HDM,34.869167,48.5525
HDN,40.48,-107.2
HDR,27.05,56.17
HDS,-24.368642,31.048744
HDY,6.933206,100.392975
HEA,34.210017,62.2283
HEB,17.6,95.45
HED,55.8,-160.9
HEE,34.58,-90.67
HEH,20.747036,96.792044
HEI,54.15,8.9
HEK,50.25,127.3
HEL,60.317222,24.963333
HEM,60.254558,25.042828
HEN,51.58,-0.2333
HEO,-9.133,147.6
HER,35.339719,25.180297
HES,45.85,-119.3
HET,40.851422,111.824103
HEV,37.27,-6.95
HEW,37.95,23.81
HEX,18.43,-69.67
HEY,31.35,-85.65
HEZ,31.62,-91.3
HFA,32.809444,35.043056
HFD,41.736722,-72.649444
HFE,31.780019,117.298436
HFF,35.04,-79.5
HFN,64.295556,-15.227222
HFS,60.020064,13.578908
HFT,70.7,23.67
HGA,9.518167,44.088758
HGD,-20.815,144.225278
HGH,30.229503,120.434453
HGL,54.18,7.917
HGN,19.301667,97.975
HGO,9.387183,-5.556664
HGR,39.707944,-77.7295
HGS,8.383,-13.12
HGT,36,-121.2
HGU,-5.826789,144.295861
HGZ,66.18,-155.7
HHA,28.19,113.2
HHE,40.556447,141.466325
HHH,32.22,-80.7
HHI,21.48,-158
HHN,49.948672,7.263892
HHP,22.33,114.2
HHQ,12.636225,99.951533
HHR,33.922839,-118.335186
HHZ,-17.53,-142.5
HIB,47.3866,-92.838994
HIC,-25.82,28.17
HID,-10.586389,142.29
HIE,44.37,-71.55
HIF,41.123939,-111.973039
HIG,-16.43,143.2
HIH,-20.17,149
HII,34.57,-114.4
HIJ,34.436111,132.919444
HIK,21.31,-157.8
HIL,9.017,38.77
HIM,8.05,80.97
HIN,35.25,128.4
HIO,45.52,-123
HIP,-21.32,138.3
HIR,-9.428,160.054789
HIS,-20.07,148.9
HIT,-6.933,143.1
HIW,34.366944,132.413889
HIX,-9.75,-139
HJJ,27.11,109
HJR,24.817197,79.918597
HJT,47.08,102.8
HKA,35.93,-89.92
HKB,63.87,-149
HKD,41.77,140.821944
HKG,22.308919,113.914603
HKK,-42.713611,170.985278
HKN,-5.462169,150.404944
HKP,22.91,-156.7
HKS,32.33,-90.22
HKT,8.1132,98.316872
HKV,41.97,25.5
HKY,35.741147,-81.38955
HLA,-25.938514,27.926133
HLB,39.3,-85.22
HLC,39.37,-99.85
HLD,49.204997,119.825
HLF,57.525833,15.823333
HLG,40.08,-80.72
HLH,46.08,122.1
HLI,36.85,-121.4
HLL,-17,128
HLM,42.78,-86.12
HLN,46.606806,-111.98275
HLP,-6.267,106.9
HLR,31.138731,-97.714469
HLS,-41,148.2
HLT,-37.65,142.1
HLU,-21.25,165.6
HLV,-15.68,145.2
HLW,-28.02,32.25
HLY,53.32,-4.633
HLZ,-37.866661,175.332056
HMA,61.02,69.08
HME,31.672972,6.140444
HMG,-23.97,132.7
HMI,42.48,93.5
HMJ,49.42,27
HMN,32.852519,-106.106525
HMO,29.095858,-111.047858
HMR,60.8,11.1
HMS,58.1,-135.4
HMT,33.75,-117
HMV,65.806111,15.082778
HNA,39.428611,141.135278
HNB,38.3,-86.95
HNC,35.22,-75.68
HND,35.552258,139.779694
HNE,61.88,-147.3
HNG,21.450453,-157.768
HNH,58.1,-135.4
HNI,-7.4,146.5
HNK,-18.38,146.3
HNL,21.318681,-157.922428
HNM,20.795636,-156.014439
HNN,-6.233,142.2
HNO,42.45,18.53
HNS,59.25,-135.5
HNX,41.87,-106.6
HNY,26.9,112.6
HOA,-1.483,40.03
HOB,32.68,-103.2
HOC,-7.417,145.9
HOD,14.753,42.976336
HOE,20.258017,100.437083
HOF,25.285306,49.485189
HOG,20.785589,-76.315108
HOH,47.38,9.7
HOI,-18.074814,-140.945886
HOK,-18.37,130.7
HOL,62.9,-159.5
HOM,59.645556,-151.476583
HON,44.3852,-98.228542
HOO,11.98,107.6
HOP,36.668567,-87.496183
HOQ,50.288836,11.854919
HOR,38.519894,-28.715872
HOS,-37.444692,-70.222469
HOT,34.478033,-93.096207
HOU,29.645419,-95.278889
HOV,62.05,6.083
HOW,8.914794,-79.599633
HOX,24.87,94.92
HOY,58.83,-3.3
HPA,-19.82,-174.3
HPB,61.5,-166.1
HPE,-14.67,144.9
HPH,20.87,106.7
HPN,41.066959,-73.707575
HPP,13.65,102.7
HPR,-25.98,28.15
HPT,42.75,-93.2
HPV,21.98,-159.4
HPY,29.73,-94.97
HQM,46.971194,-123.936556
HRA,34.33,73.2
HRB,45.623403,126.250328
HRC,48.47,70.47
HRD,68.8,16.5
HRE,-17.931806,31.092847
HRG,27.178317,33.799436
HRJ,28,83.83
HRK,49.924786,36.289986
HRL,26.2285,-97.654389
HRM,32.930431,3.311542
HRN,-31.92,115.9
HRO,36.261519,-93.154728
HRR,3.217,-75.85
HRS,-28.23,29.1
HRT,54.05,-1.25
HRY,-24.67,133.1
HRZ,-27.64,-54.34
HSB,37.73,-88.55
HSC,24.83,113.6
HSG,33.15,130.3
HSH,35.97,-115.1
HSI,40.6,-98.43
HSK,42.09,-0.3303
HSL,65.7,-156.4
HSM,-36.669722,142.172778
HSN,29.38,122.4
HSP,37.95,-79.82
HSS,29.17,75.8
HST,25.48855,-80.383567
HSV,34.637194,-86.775056
HSZ,24.82,120.9
HTA,52.026317,113.305556
HTB,15.85,-61.63
HTF,51.75,-0.2333
HTG,71.97,102.5
HTH,38.55,-118.6
HTI,-20.358056,148.951667
HTL,47.1,-88.57
HTM,50.45,100.2
HTN,37.038522,79.864933
HTO,40.97,-72.23
HTR,24.05,123.8
HTS,38.366667,-82.558028
HTU,-35.72,142.4
HTV,30.75,-95.58
HTW,36.75,-76.25
HTY,36.58,36.16
HTZ,6.167,-71.75
HUA,34.678653,-86.684781
HUB,-16.48,130.6
HUC,18.14,-65.8
HUD,42.73,-94.22
HUE,14.25,36.58
HUF,39.451464,-87.307561
HUG,15.33,-91.47
HUH,-16.687242,-151.021667
HUI,16.4,107.7
HUJ,34.02,-95.52
HUK,-23.98,21.75
HUL,46.13,-67.8
HUM,29.58,-90.67
HUN,24.023725,121.616906
HUQ,29.110106,15.965567
HUS,66.03,-154.2
HUT,38.0655,-97.860634
HUU,-9.878811,-76.204797
HUV,61.768092,17.080719
HUX,15.775317,-96.262572
HUY,53.574444,-0.350833
HUZ,23.08,114.4
HVA,-14.629694,47.763783
HVB,-25.318889,152.880278
HVD,48.02,91.65
HVE,38.42,-110.7
HVG,70.98,25.83
HVK,65.7,-21.7
HVM,65.42,-21
HVN,41.26375,-72.886806
HVR,48.55,-109.8
HVS,34.4,-80.12
HWA,-7.433,146
HWD,37.67,-122.1
HWI,58.13,-134.8
HWK,-31.88,138.4
HWN,-18.37,26.52
HWO,26,-80.15
HXX,-34.531389,144.829722
HYA,41.669336,-70.280356
HYC,51.63,-0.7667
HYD,17.453117,78.467586
HYF,-3.633,143.1
HYG,55.2,-132.8
HYL,55.48,-132.7
HYN,28.42,122.4
HYR,46.03,-91.45
HYS,38.85,-99.27
HYV,60.654444,24.881111
HZB,50.62,2.65
HZG,32.98,107.2
HZH,26.34,109.2
HZK,65.952328,-17.425978
HZL,40.98,-76
HZP,57.37,-111.7
HZV,-25.07,32.17
IAA,67.43,86.63
IAB,37.621853,-97.268192
IAD,38.944533,-77.455811
IAG,43.107333,-78.946194
IAH,29.984433,-95.341442
IAM,28.05155,9.642911
IAN,66.98,-160.4
IAQ,27.212678,54.318592
IAR,57.62,39.88
IAS,47.178492,27.620631
IAT,33.97,-122
IAU,-9.783,148.1
IBA,7.362458,3.978333
IBE,4.421608,-75.1333
IBI,-8.4,146.3
IBL,-21.7,35.45
IBO,-12.33,40.58
IBP,-11.411578,-69.488711
IBZ,38.872858,1.373117
ICA,4.333,-61.73
ICI,-16.73,179.6
ICK,5.933,-56.98
ICL,40.73,-95.03
ICN,37.469075,126.450517
ICO,11.45,123.3
ICR,20.98,-75.97
ICS,44.49,-116
ICT,37.649944,-97.433056
ICY,59.98,-141.7
IDA,43.514556,-112.07075
IDB,61.87,12.68
IDC,-22.18,35.52
IDF,-5,19.5
IDG,42.35,-95.47
IDH,45.94,-116.1
IDI,40.63,-79.1
IDK,-26.97,133.3
IDN,-6.033,147
IDO,-11.57,-50.63
IDP,37.22,-95.7
IDR,22.721786,75.801086
IDY,46.718611,-2.391111
IEG,52.138517,15.798556
IEJ,26.721967,127.784839
IES,51.3,13.28
IEV,50.401694,30.449697
IFA,42.52,-93.27
IFF,-18.92,141.3
IFH,32.92,51.55
IFJ,66.058056,-23.135278
IFL,-17.559444,146.011667
IFN,32.750836,51.861267
IFO,48.884167,24.686111
IFP,35.15,-114.6
IGA,20.975,-73.666862
IGB,-41.3,-69.58
IGE,-1.917,9.317
IGG,59.32,-155.9
IGH,-18.660556,146.151667
IGL,38.513022,27.010053
IGM,35.25,-113.9
IGN,8.130489,124.214925
IGO,7.683,-76.68
IGR,-25.737281,-54.473444
IGS,48.72,11.53
IGU,-25.59615,-54.487206
IHA,33.95,133.3
IHC,-26,32.93
IHN,15.43,51.7
IHO,-22.4,46.13
IHR,27.23,60.72
IHU,-7.9,145.4
IIA,53.08,-9.533
III,43.67,7.217
IIL,33.62,46.43
IIN,30.83,131
IIS,-4.333,154.3
IJK,56.83,53.47
IJU,-28.42,-53.92
IJX,39.77,-90.23
IKA,35.41,51.15
IKB,36.17,-81.15
IKI,33.749027,129.785417
IKK,41.071389,-87.846278
IKL,-1.2,23.3
IKO,53,-168.8
IKP,-16.25,141.5
IKS,71.7,128.9
IKT,52.268028,104.388975
ILA,-3.833,137.6
ILB,-20.33,-51.33
ILE,31.15,-97.72
ILF,56.07,-95.58
ILG,39.678722,-75.606528
ILH,50.93,6.95
ILI,59.754356,-154.910961
ILK,-19.75,48.82
ILL,45.12,-95.1
ILM,34.270615,-77.902569
ILN,39.42,-83.8
ILO,10.713044,122.545297
ILP,-22.58,167.5
ILQ,-17.33,-71.33
ILR,8.440211,4.493919
ILU,-2.9,38.07
ILX,-5.483,145.8
ILY,55.681944,-6.256667
ILZ,49.23,18.77
IMA,-9.5,150.5
IMB,5.717,-60.28
IMD,-3.35,141.5
IMF,24.75995,93.896697
IMG,-18.4,35
IMI,6.983,171.6
IMK,29.97,81.83
IML,40.52,-101.6
IMM,26.42,-81.42
IMN,-6.7,146.1
IMO,5.033,25.13
IMP,-5.531292,-47.46005
IMT,45.82,-88.12
IMZ,31.1,61.93
INA,66.07,60.1
INB,16.53,-88.43
INC,38.37,106.4
IND,39.717331,-86.294383
INE,-18.62,36.4
INF,19.55,5.767
ING,-50.33,-72.25
INH,-23.876431,35.408544
INI,43.337289,21.853722
INJ,-25.85,148.6
INK,31.779628,-103.201361
INL,48.566186,-93.403067
INM,-27.83,140.8
INN,47.260219,11.343964
INO,-1.95,18.28
INQ,53.03,-9.433
INR,46.53,-84.33
INS,36.57,-115.7
INT,36.133722,-80.222
INU,-0.55,166.9
INV,57.5425,-4.0475
INW,35.02,-110.7
INX,-2.133,132.2
INY,-24.78,31.38
INZ,27.251022,2.512017
IOA,39.696388,20.8225
IOK,-8.4,146.3
IOM,54.083333,-4.623889
ION,1.617,18.07
IOP,-8.367,147.9
IOR,53.12,-9.75
IOS,-14.815964,-39.033197
IOU,-22.42,166.8
IOW,41.67,-91.53
IPA,-18.75,169.2
IPC,-27.164792,-109.421831
IPE,7.783,122.6
IPG,-3.333,-69.42
IPH,4.567972,101.092194
IPI,0.861925,-77.671764
IPL,32.83,-115.6
IPN,-19.470722,-42.487583
IPT,41.241836,-76.921094
IPU,-14.13,-39.73
IPW,52.03,1.2
IQM,38.13,85.53
IQN,36.1,107.8
IQQ,-20.535222,-70.181275
IQT,-3.784739,-73.308806
IRA,-10.5,161.8
IRB,30.9,-101.9
IRC,65.83,-144.1
IRD,24.1525,89.049446
IRE,-11.3,-41.87
IRG,-12.786944,143.304722
IRI,-7.668633,35.752114
IRJ,-29.381636,-66.795839
IRK,40.1,-92.55
IRM,63.2,64.45
IRN,15.95,-85.18
IRO,10.5,22.55
IRP,2.827606,27.588253
IRS,41.8,-85.42
ISA,-20.663889,139.488611
ISB,33.616653,73.099233
ISC,49.9,-6.4
ISD,2.433,-77.97
ISE,37.855417,30.368397
ISG,24.344525,124.186983
ISH,40.63,13.83
ISI,-24.258333,144.425
ISJ,21.245033,-86.739967
ISK,19.963739,73.807644
ISL,63.5,-145
ISM,28.28,-81.43
ISN,48.18,-103.7
ISO,35.33,-77.62
ISP,40.79525,-73.100222
ISQ,45.95,-88.25
ISS,43.97,-69.72
IST,40.976922,28.814606
ISU,35.56,45.31
ISW,44.36,-89.84
ITA,-3.127256,-58.481186
ITB,-4.242342,-56.000669
ITE,-18.444661,-49.213361
ITH,42.48,-76.47
ITI,-18.02,-41.7
ITJ,-26.88,-48.65
ITK,-9.517,147.3
ITM,34.785528,135.438222
ITN,-14.8,-39.38
ITO,19.721375,-155.048469
ITP,-21.22,-41.87
ITQ,-29.17,-56.53
ITR,-18.45,-49.21
IUE,-19.080028,-169.925639
IUL,-3.75,138.1
IUM,54.28,-122.6
IUS,-5.817,155.2
IVA,-13.65,48.47
IVC,-46.412408,168.312992
IVG,42.43,19.78
IVH,69.4,-148.3
IVL,68.607269,27.405328
IVO,10.02,-74.68
IVR,-29.888333,151.144167
IVW,-17.77,129.2
IWA,33.307833,-111.655472
IWD,46.53,-90.13
IWJ,34.676389,131.790278
IWO,24.784,141.322722
IWS,29.65,-95.32
IXA,23.886978,91.24045
IXB,26.681206,88.328567
IXC,30.673469,76.788542
IXD,25.440064,81.733872
IXE,12.961267,74.890069
IXG,15.859286,74.618292
IXH,24.308192,92.007156
IXI,27.295494,94.09765
IXJ,32.689142,74.837389
IXK,21.317069,70.270403
IXL,34.135872,77.546514
IXM,9.834508,78.093378
IXN,24.07,91.63
IXP,32.233778,75.634628
IXQ,24.13,91.82
IXR,23.31425,85.321675
IXS,24.912928,92.978742
IXT,28.07,95.37
IXU,19.862728,75.398114
IXV,28.42,94.83
IXW,22.813211,86.168844
IXY,23.112719,70.100289
IXZ,11.641161,92.729744
IYK,35.65,-117.8
IZM,38.52,27.02
IZO,35.413611,132.89
IZT,16.449336,-95.093697
JAA,34.399842,70.498625
JAB,-10.22,132.6
JAC,43.607333,-110.73775
JAD,-32.0975,115.881111
JAE,33.93,-84.15
JAF,9.792331,80.070089
JAG,28.284167,68.449711
JAH,43.28,5.567
JAI,26.824192,75.812161
JAJ,33.93,-84.15
JAK,18.25,-72.52
JAL,19.475083,-96.797506
JAM,42.52,26.48
JAN,32.311167,-90.075889
JAO,33.93,-84.15
JAP,27.83,-104
JAQ,-5.6,151.5
JAR,28.48,53.53
JAS,30.92,-94.02
JAT,7,169
JAU,-11.783144,-75.473394
JAV,69.25,-51
JAX,30.494056,-81.687861
JBC,42.33,-71.03
JBK,37.95,-122.3
JBP,33.98,-118.2
JBQ,18.57,-69.99
JBR,35.831708,-90.646417
JBS,37.71,-121.9
JBT,60.8,-161.8
JCA,43.55,7.017
JCB,-27.17,-51.52
JCC,37.62,-122.4
JCD,17.75,-65.92
JCE,37.62,-122.4
JCH,68.83,-51
JCI,38.82,-94.88
JCJ,33.5,126.5
JCK,-20.668333,141.7225
JCM,-11.18,-40.52
JCN,37.43,126.4
JCO,36,14.33
JCR,-6.233156,-57.776869
JCT,30.48,-99.77
JCU,35.9,5.338
JCX,34.05,-118.3
JCY,32.33,-97.33
JDA,44.42,-119
JDB,32.77,-97.32
JDF,-21.7915,-43.386778
JDH,26.251092,73.048869
JDM,25.8,-80.3
JDN,47.32,-106.9
JDO,-7.217,-39.27
JDP,48.72,2.383
JDR,-21.09,-43.23
JDT,44.97,-93.24
JDX,29.77,-95.33
JDY,42.43,-112.1
JDZ,29.27,117.2
JED,21.679564,39.156536
JEE,18.67,-74.17
JEF,38.6,-92.17
JEG,68.7,-52.75
JEJ,7.583,168.9
JEM,33.95,-117.4
JEQ,-13.85,-40.08
JER,49.207947,-2.195508
JEV,48.63,2.567
JFK,40.639751,-73.778925
JFM,-31.95,116
JFN,41.73,-80.77
JFR,62,-49.65
JGA,22.465522,70.012556
JGB,19.07,82.03
JGC,35.97,-112.1
JGE,34.9,128.7
JGL,33.58,-84.47
JGN,39.75,98.25
JGO,69.25,-53.55
JGP,28.8,-97.01
JGQ,29.77,-95.47
JGR,61.23,-48.1
JGS,40.05,116.6
JGX,34.08,-118.3
JHB,1.641308,103.669619
JHC,40.73,-73.6
JHE,56.05,12.7
JHG,21.973914,100.759611
JHM,20.962936,-156.673031
JHQ,-20.28,148.8
JHS,66.93,-53.7
JHW,42.15,-79.25
JHY,33.97,-118
JIA,-11.5,-58.88
JIB,11.547331,43.159481
JID,34.02,-118
JIJ,9.367,42.77
JIK,37.682717,26.347061
JIL,43.85,126.6
JIM,7.666094,36.816639
JIN,0.45,33.2
JIO,34.05,-117.6
JIP,-1.333,-80.67
JIR,27.63,86.23
JIU,29.65,116
JIW,25.08,61.82
JJA,-8.213,159.3
JJI,-7.1691,-76.728561
JJN,24.9,118.6
JJU,60.75,-46
JKG,57.757594,14.068731
JKH,38.343175,26.140572
JKL,36.96,26.96
JKR,26.73,85.93
JKT,-6.267,106.9
JKV,31.97,-95.28
JLA,60.48,-149.9
JLB,33.82,-118.2
JLD,55.944444,12.869444
JLH,42.07,-87.99
JLN,37.151814,-94.498269
JLO,45.5,12.6
JLP,43.57,7.1
JLR,23.177817,80.052047
JLS,-20.27,-50.55
JLX,33.93,-118.4
JMA,29.61,-95.16
JMB,-14.7,16.08
JMC,37.85,-122.5
JMD,32.68,-96.87
JMH,42.05,-88.05
JMK,37.435128,25.348103
JMM,55.62,13
JMN,44.15,-93.98
JMO,28.78,83.73
JMS,46.93,-98.68
JMU,46.843394,130.465389
JMY,8.617,-13.22
JNA,-15.47,-44.38
JNB,-26.139166,28.246
JNG,35.42,116.5
JNH,33.13,-96.51
JNI,-34.545889,-60.930556
JNN,60.15,-45.22
JNP,33.62,-117.9
JNS,61.03,-45.53
JNU,58.354972,-134.576278
JNX,37.1,25.4
JNZ,41.12,121
JOC,33.67,-117.9
JOE,62.662906,29.60755
JOG,-7.783,110.4
JOH,-31.62,29.53
JOI,-26.224453,-48.797364
JOK,56.72,47.9
JOL,6.053672,121.011044
JOM,-9.35,34.8
JON,16.73,-169.5
JOP,-4.75,145
JOR,33.78,-117.9
JOS,9.639828,8.86905
JOT,41.53,-88.08
JPA,-7.148381,-34.950681
JPD,34.17,-118.2
JPN,38.87,-77.06
JPR,-8.05,-62.87
JPT,29.65,-95.32
JPU,48.87,2.333
JQA,70.73,-52.7
JQE,7.75,-78.25
JRA,40.75,-74
JRB,40.78,-75.05
JRC,44.02,-92.48
JRD,33.95,-117.4
JRE,40.8,-73.97
JRH,26.731528,94.175536
JRK,61.17,-48.42
JRN,-10.3,-58.48
JRO,-3.429406,37.074461
JRS,31.87,35.22
JSA,26.888653,70.864967
JSD,41.2,-74.63
JSG,38.02,-122.5
JSH,35.216108,26.101325
JSI,39.1771,23.503675
JSK,45.55,-94.06
JSL,39.35,-74.42
JSM,-44.03,-70.47
JSN,34.16,-118.4
JSO,59.2,17.62
JSP,33.5,126.5
JSR,23.1838,89.160833
JSS,37.33,23.25
JST,40.316111,-78.833944
JSU,65.4,-52.87
JSY,37.03,25.58
JTI,-49.77,-46.48
JTO,34.08,-118.9
JTR,36.399169,25.479333
JTY,36.53,26.37
JUA,-17.88,-51.72
JUB,4.872006,31.601117
JUC,34.05,-118.2
JUI,53.68,7
JUJ,-24.392778,-65.097778
JUL,-15.467103,-70.158169
JUM,29.28,82.18
JUN,-24.8,143
JUO,6.517,-76.6
JUP,34.11,-117.7
JUR,-30.27,115.1
JUT,14.8,-86.13
JUV,72.8,-56.15
JUZ,28.97,118.8
JVA,-18.8,45.28
JVI,39.48,-75.03
JVL,42.62,-89.03
JWA,-24.602333,24.690971
JWC,33.28,-116.7
JWH,29.73,-95.53
JWL,29.94,-95.64
JWN,36.77,48.36
JXN,42.259785,-84.459404
JYR,28.72,57.67
JYV,62.399453,25.678253
JZH,40.05,116.6
KAA,-10.22,31.13
KAB,-16.519761,28.884981
KAC,37.020625,41.191394
KAD,10.696025,7.320114
KAE,56.97,-134
KAF,-6.283,155.4
KAG,37.753561,128.943625
KAH,-37.72,145
KAI,5.15,-59.48
KAJ,64.285472,27.692414
KAK,-6.233,143.5
KAL,64.33,-158.7
KAM,15.37,42.58
KAN,12.047589,8.524622
KAO,65.987575,29.239381
KAP,-8.333,22.67
KAQ,-8.133,146.8
KAR,5.883,-60.62
KAS,-28,18.72
KAT,-35.07,173.285278
KAU,63.127078,23.051442
KAV,5.667,-61.77
KAW,10.049258,98.538006
KAX,-27.87,114.1
KAY,-17.62,179
KAZ,1.167,127.9
KBA,9.583,-11.55
KBB,-17.77,129.2
KBC,66.27,-145.8
KBD,-17.4,124.4
KBE,65.49,-144.6
KBF,-3.75,138.3
KBG,2.333,31.5
KBH,29.05,66.58
KBI,2.867,9.983
KBJ,-14.48,132.3
KBK,57,-136
KBL,34.565853,69.212328
KBM,-6.4,147.4
KBN,-6.117,24.53
KBO,-6.083,26.92
KBP,50.345,30.894722
KBQ,-13.02,33.47
KBR,6.16685,102.293014
KBT,8.9,170.9
KBU,-3.233,116.2
KBV,8.095969,98.988764
KBW,56.28,-158.4
KBX,-1,132.3
KBY,-32.8,134.2
KBZ,-42.42,173.7
KCA,41.57,82.73
KCB,3.15,-55.72
KCC,56,-132.8
KCD,-6.2,138.7
KCE,-20.55,147.9
KCF,27.2,69.15
KCG,56.3,-158.4
KCH,1.484697,110.346933
KCI,-2.533,140.7
KCJ,-7.267,143.6
KCK,39.12,-94.65
KCL,56.3,-158.5
KCM,37.538967,36.953411
KCN,53.4,-167.6
KCO,40.73,30.08
KCP,48.68,26.62
KCQ,56.25,-158.8
KCR,64.5,-165.4
KCS,-24.38,131.7
KCT,5.984,80.33
KCU,1.683,31.72
KCZ,33.546111,133.669444
KDA,12.88,-14.97
KDB,-31.2,121.7
KDC,11.13,2.933
KDD,27.8,66.6
KDE,-5.683,142.7
KDF,15.67,18.25
KDG,41.62,25.33
KDH,31.505756,65.847822
KDI,-4,122.8
KDJ,-0.25,10.75
KDK,57.8,-152.4
KDL,58.990756,22.830733
KDM,0.488131,72.996944
KDN,-2.5,11.17
KDO,1.859167,73.521944
KDP,-5.867,143.5
KDQ,-3.6,141.1
KDR,-6.217,149.6
KDS,-24.33,139.2
KDT,14.1,99.92
KDU,35.335508,75.536047
KDV,-19.05,178.2
KDW,7.288,80.63
KDY,7.218,81.6
KDZ,7.331,80.64
KEA,-7.667,140.5
KEB,59.37,-151.9
KEC,-10.35,28.63
KED,16.159547,-13.507617
KEE,-0.1,14.55
KEF,63.985,-22.605556
KEG,-5.8,145.1
KEH,47.73,-122.3
KEI,-6.667,139.4
KEJ,55.270094,86.107208
KEK,59.37,-157.5
KEL,54.3795,10.145167
KEM,65.781889,24.5991
KEN,7.867,-11.2
KEO,9.55,-7.567
KEP,28.103633,81.667006
KEQ,-0.6333,133.1
KER,30.274444,56.951111
KES,56.25,-96.97
KET,21.301611,99.635997
KEU,67.92,-162.3
KEV,61.85605,24.7866
KEW,52.99,-92.84
KEX,-7.767,145.9
KEY,-0.3667,35.5
KEZ,6.951,79.93
KFA,16.589983,-11.406208
KFG,-17.43,130.8
KFP,54.85,-163.4
KFS,41.31,33.79
KGA,-5.900055,22.469166
KGB,-6.133,147.7
KGC,-35.73,137.5
KGD,54.89005,20.592633
KGE,-8.15,157.6
KGF,49.670833,73.334444
KGG,12.572292,-12.220333
KGH,-8.583,147.5
KGI,-30.789444,121.461667
KGJ,-9.953569,33.893022
KGK,59.78,-157.3
KGL,-1.968628,30.13945
KGM,-9.5,147.1
KGN,-6.467,16.82
KGO,48.55,32.3
KGP,62.2,74.54
KGR,-25.83,133.5
KGS,36.793335,27.091667
KGT,38.14,101.7
KGU,5.367,116.2
KGW,-9.05,146.8
KGX,62.67,-160
KGY,-26.580833,151.841111
KGZ,61.45,-142.4
KHA,36.73,45.15
KHC,45.37,36.45
KHD,33.44,48.28
KHE,46.63,32.93
KHG,39.542922,76.019956
KHH,22.577094,120.350006
KHI,24.906547,67.160797
KHJ,62.43,22.18
KHK,29.260278,50.323889
KHL,22.8,89.55
KHM,26,95.7
KHN,28.865,115.9
KHO,-24.58,31.42
KHR,47.22,102.8
KHS,26.170986,56.240569
KHT,33.33,69.95
KHU,49.1,33.45
KHV,48.528044,135.188361
KHW,-19.13,23.83
KHY,38.43,44.97
KHZ,-15.77,-145.1
KIA,-6.267,146.3
KIB,55.9,-159.5
KIC,36.23,-121.1
KID,55.921686,14.085536
KIE,-6.333,155.6
KIF,53.03,-89.83
KIG,-30.2,17.27
KIH,26.526156,53.980211
KII,-9,142.7
KIJ,37.955892,139.120717
KIK,35.52,44.3
KIL,-9.3,28.38
KIM,-28.802834,24.765167
KIN,17.935667,-76.7875
KIO,5.65,169.2
KIP,33.9,-98.5
KIQ,-7.633,147.1
KIR,52.180878,-9.523783
KIS,-0.086139,34.728892
KIT,36.274258,23.016978
KIU,-1.75,41.48
KIV,46.927744,28.930978
KIW,-12.900469,28.149858
KIX,34.427306,135.244072
KIY,-8.917,39.53
KIZ,-8.65,147.9
KJA,56.172947,92.493278
KJI,48.22,87
KJK,50.817222,3.204722
KJN,13.17,32.72
KJP,36.17,133.3
KJU,-2.883,151.3
KKA,64.92,-161.1
KKB,58.18,-152.4
KKC,16.466628,102.783661
KKD,-8.883,147.7
KKE,-35.262779,173.911944
KKF,67.6,-163.5
KKG,5.217,-59
KKH,59.97,-162.8
KKI,60.92,-161.4
KKJ,33.845942,131.034689
KKK,64.42,-156.8
KKL,57.37,-154
KKM,14.874561,100.663367
KKN,69.725781,29.891295
KKO,-35.45,173.8
KKP,-15.58,144
KKR,-15.663333,-146.884769
KKT,40.77,-87.45
KKU,58.82,-158.6
KKW,-5.035767,18.785631
KKX,28.321344,129.9281
KKY,52.65,-7.25
KKZ,11.62,103
KLA,0.3167,32.58
KLB,-14.97,22.68
KLC,14.146881,-16.051297
KLD,56.824736,35.757678
KLE,10.1,14.45
KLF,54.5,36.27
KLG,61.53,-160.4
KLH,16.664658,74.289353
KLI,-4.167,21.75
KLK,3.517,35.83
KLL,59.12,-156.9
KLM,37.37,55.45
KLN,57.53,-154
KLO,11.679431,122.376294
KLP,57.55,-134.9
KLQ,-2.6,104
KLR,56.685531,16.287578
KLS,46.15,-122.9
KLT,50.23,7.15
KLU,46.65,14.35
KLV,50.202978,12.914983
KLW,55.55,-133.1
KLX,37.068319,22.025525
KLY,-2.583,26.73
KLZ,-29.688403,17.094006
KMA,-7.967,145.8
KMB,-5.5,144.6
KMC,27.9,45.53
KMD,-1.667,10.42
KME,-2.462242,28.90795
KMF,-7.25,145.5
KMG,24.992364,102.743536
KMH,-27.456667,23.411388
KMI,31.877222,131.448611
KMJ,32.837319,130.85505
KMK,-3.483,12.62
KML,-19.5,140.1
KMM,-7.967,138.9
KMN,-8.642025,25.252897
KMO,58.97,-159.1
KMP,-26.539828,18.111447
KMQ,36.394611,136.406544
KMR,-6.5,144.8
KMS,6.714564,-1.590819
KMT,10.63,104.2
KMU,-0.377353,42.459233
KMV,23.18,94.05
KMW,57.75,40.93
KMX,18.297286,42.803536
KMY,57,-154.2
KMZ,-14.8,24.78
KNA,-32.949611,-71.478583
KNB,37.25,-112.8
KNC,41.13,126.2
KND,-2.919178,25.915361
KNE,-5.283,144.7
KNF,52.648353,0.550692
KNG,-3.644517,133.695553
KNH,24.427892,118.359197
KNI,-33.7,117.6
KNJ,-3.733,14.22
KNK,59.43,-154.9
KNL,-6,147.5
KNM,-7.583,24.15
KNN,10.4,-9.3
KNO,51.42,3.25
KNP,-12.78,15.72
KNQ,-21.053428,164.837806
KNR,27.85,52.12
KNS,-39.88,143.9
KNT,36.23,-90.05
KNU,26.441444,80.364864
KNV,50.68,-125.8
KNW,59.53,-157.3
KNX,-15.778056,128.7075
KNY,57.1,-102
KNZ,12.83,-11.25
KOA,19.738767,-156.045631
KOB,5,10
KOC,-20.546314,164.255625
KOD,-0.2667,116.6
KOE,-10.17,123.7
KOF,-25.42,31.92
KOG,14.1,105.8
KOH,-15.97,142.4
KOI,58.957778,-2.905
KOJ,31.803397,130.719408
KOK,63.721172,23.143131
KOL,8.5,21.25
KOM,-6.133,143.6
KON,14.35,108
KOO,-5.4,27
KOP,17.383794,104.643022
KOQ,51.72,11.95
KOR,-7.817,146.6
KOS,10.6,103.7
KOT,63.03,-163.5
KOU,-1.117,12.5
KOV,53.32,69.4
KOW,25.9,114.9
KOX,-4.533,136.6
KOY,57.15,-154.2
KOZ,57.92,-152.5
KPA,-5.583,145.4
KPB,56.37,-133.6
KPC,65.25,-166.9
KPD,40.08,-75.38
KPE,-4.633,141.1
KPF,-8.517,142.5
KPG,6.467,-59.17
KPH,54.46,-162.7
KPI,2,112.9
KPK,57.42,-155.9
KPL,-8.617,142.8
KPM,-5.333,143.9
KPN,59.93,-164
KPO,35.987858,129.420486
KPP,-14.88,144.2
KPR,58.48,-152.6
KPS,-31.074444,152.769722
KPT,41.97,-114.7
KPV,55.9,-159.1
KPY,57.93,-153.1
KQA,54.12,-165.8
KQB,-34.93,138.6
KQL,-5.667,144.8
KQT,37.87,68.85
KRA,-35.75,143.9
KRB,-17.5,140.9
KRC,-1.7,101.3
KRD,-20.5,134.6
KRE,-2.55,30.1
KRF,63.048597,17.768856
KRG,4.017,-59.52
KRI,-7.483,144.1
KRJ,-8.75,147.5
KRK,50.077731,19.784836
KRL,41.73,86.15
KRM,3.75,-59.32
KRN,67.821986,20.336764
KRO,55.43,65.3
KRP,56.297458,9.124628
KRQ,48.72,37.62
KRR,45.034689,39.170539
KRS,58.204214,8.085369
KRT,15.589497,32.553161
KRU,-8.3,147.1
KRV,2.983,36.12
KRW,40.063333,53.007222
KRX,-4.833,145.7
KRY,45.62,84.88
KRZ,-1.45,19
KSA,5.356975,162.958386
KSB,-6.383,147
KSC,-35.713889,137.521389
KSD,59.444714,13.337361
KSE,0.1667,30.1
KSF,51.408394,9.377631
KSG,-6.35,146.7
KSH,34.345853,47.158128
KSI,9.167,-10.12
KSJ,35.421358,26.910047
KSK,59.345867,14.495922
KSL,15.387494,36.328842
KSM,62.060486,-163.30211
KSN,57.503525,10.229372
KSO,40.446294,21.282186
KSP,-8.55,147.5
KSQ,38.8,65.77
KSR,61.22,-149.9
KSS,11.32,-5.667
KST,13.18,32.73
KSU,63.111781,7.824522
KSV,56.550208,9.172983
KSW,33.22,35.57
KSX,-6.6,146.2
KSY,40.562222,43.115002
KSZ,61.23,46.7
KTA,-20.712222,116.773333
KTB,55.68,-132.5
KTC,8.133,-5.1
KTD,25.944722,131.326944
KTE,4.537222,103.426756
KTF,-40.85,172.8
KTG,-1.816639,109.963483
KTH,59.96,-158.5
KTI,12.48,106.1
KTK,-5.339,154.8
KTL,0.971989,34.958556
KTM,27.696583,85.3591
KTN,55.355556,-131.71375
KTO,4.65,-59.82
KTP,17.988558,-76.823761
KTQ,62.166111,30.073611
KTR,-14.521111,132.377778
KTS,65.33,-166.5
KTT,67.701022,24.84685
KTU,25.160219,75.845631
KTV,5.75,-62.42
KTW,50.474253,19.080019
KTX,12.38,-5.467
KTY,6.556,79.98
KTZ,22.32,114.2
KUA,3.775389,103.209056
KUB,4.917,114.9
KUC,0.2333,173.4
KUD,6.917,116.8
KUE,-8.017,157
KUF,53.504858,50.164336
KUG,-10.25,142.2
KUH,43.040967,144.192986
KUI,-36.47,174.8
KUJ,33.43,135.8
KUK,60.87,-162.5
KUL,2.745578,101.709917
KUM,30.385569,130.659017
KUN,54.963919,24.084778
KUO,63.00715,27.797756
KUP,-10.07,148.2
KUQ,-10.07,148.2
KUR,38.4,71.12
KUS,65.57,-37.12
KUT,42.25,42.7
KUU,31.876706,77.154367
KUV,35.903756,126.615906
KUW,67.97,-162
KUX,-5.367,141.6
KUY,-7.428,143.1
KUZ,55.33,59.48
KVA,40.913306,24.619223
KVB,58.4564,13.972672
KVC,55.07,-162.3
KVD,40.737678,46.317581
KVE,-10.17,148.7
KVG,-2.567,150.8
KVK,67.58,33.58
KVL,67.73,-164.7
KVR,44.27,135
KVU,-18.22,177.7
KVX,58.5,49.35
KWA,8.720122,167.731661
KWB,-5.85,110.5
KWD,-8,23.23
KWE,26.538522,106.800703
KWF,55.3,-133.3
KWG,48.043333,33.21
KWH,37.88,70.2
KWI,29.226567,47.968928
KWJ,35.126389,126.808889
KWK,59.82,-163.2
KWL,25.218106,110.039197
KWM,-17.52,145.4
KWN,59.75,-161.9
KWO,-7.983,142.8
KWP,57.77,-153.6
KWR,-8.567,160.7
KWS,-8.35,160.8
KWT,60.8,-161.5
KWU,-37.78,175.3
KWV,-6.183,155.3
KWX,-8.5,143.4
KWY,-2.017,41.27
KWZ,-10.765886,25.505714
KXA,55.5,-132.5
KXE,-26.97,26.65
KXF,-17.32,179.4
KXK,50.4,137
KXR,-5.283,154.6
KXU,-16.4,-144.3
KYA,37.979,32.561861
KYB,-34.75,138.7
KYD,22.028842,121.533642
KYE,34.58,36
KYF,-27.27,120.1
KYI,-31.48,131.9
KYK,57.57,-154.4
KYL,25.08,-80.4
KYN,52.05,0.7
KYO,27.92,-82.68
KYP,19.426447,93.534836
KYS,14.481233,-11.404397
KYT,21.4,94.13
KYU,64.9,-157.7
KYX,-6.133,146.6
KYZ,51.7,94.47
KZB,57.55,-153.8
KZC,12.255236,104.563875
KZD,12.53,104.2
KZF,-7.8,145.9
KZG,49.73,10.15
KZH,57.58,-153.2
KZI,40.28611,21.840834
KZK,12.72,104.9
KZN,55.606186,49.278728
KZO,44.87,65.47
KZS,36.13,29.57
LAA,38.07,-102.7
LAB,-5.633,148.1
LAC,7.417,113.8
LAD,-8.858375,13.231178
LAE,-6.569828,146.726242
LAF,40.412317,-86.9369
LAG,10.53,-67.03
LAH,-0.6167,127.5
LAI,48.754378,-3.471656
LAJ,-27.782142,-50.281486
LAK,68.22,-135
LAL,27.988917,-82.018555
LAM,35.88,-106.3
LAN,42.7787,-84.587357
LAO,18.178092,120.531522
LAP,24.072694,-110.362475
LAQ,32.788673,21.964333
LAR,41.312056,-105.675
LAS,36.080056,-115.15225
LAT,11.7,-72.28
LAU,-2.252417,40.913097
LAV,-13.92,-172
LAW,34.57,-98.42
LAX,33.942536,-118.408075
LAY,-28.581667,29.749722
LAZ,-13.262086,-43.408114
LBA,53.865897,-1.660569
LBB,33.663639,-101.822778
LBC,53.805367,10.719222
LBD,40.22,69.7
LBE,40.275939,-79.404797
LBF,41.126211,-100.683656
LBG,48.969444,2.441389
LBH,-33.97,151.3
LBI,43.913887,2.113056
LBJ,-8.517,119.9
LBK,0.4,40.95
LBL,37.044222,-100.95986
LBM,-18.5,36.17
LBN,0.6667,36.08
LBO,-4.967,23.38
LBP,3.2,115.4
LBQ,-0.704389,10.245722
LBR,-7.25,-64.78
LBS,-16.47,179.3
LBT,34.6,-79.07
LBU,5.300683,115.250181
LBV,0.4586,9.412283
LBW,3.883,115.7
LBX,13.855428,120.105342
LBY,47.25,-2.233
LBZ,-8.383,20.67
LCA,34.875117,33.62485
LCB,-13.8,-59.92
LCC,40.239228,18.133325
LCD,-23.02,29.72
LCE,15.742481,-86.853036
LCF,15.67,-88.95
LCG,43.302061,-8.377256
LCH,30.126112,-93.223335
LCI,43.57,-71.42
LCJ,51.72,19.4
LCK,39.813786,-82.927822
LCL,22.336261,-83.642111
LCM,-31,-64.53
LCN,-30.53,139.3
LCO,-1.8,14.87
LCP,-38.08,-70.67
LCR,-0.7333,-73.02
LCS,10.42,-85.13
LCV,43.83,10.58
LCX,25.68,116.7
LCY,51.505278,0.055278
LDA,25.03,88.15
LDB,-23.333625,-51.130072
LDC,-20.45,149.1
LDE,43.178675,-0.006439
LDG,64.9,45.74
LDH,-31.52,159.1
LDI,-9.833,39.78
LDJ,40.63,-74.25
LDK,58.465522,13.174414
LDM,43.95,-86.45
LDN,27.3,86.75
LDO,4.383,-55.42
LDR,13.88,45.87
LDS,42.35,-88.03
LDU,5.032247,118.324036
LDV,48.530258,-4.151642
LDW,-17.58,126.8
LDX,5.483,-54.02
LDY,55.042778,-7.161111
LDZ,-24.8,31.5
LEA,-22.235556,114.088611
LEB,43.626111,-72.304194
LEC,-12.48,-41.28
LED,59.800292,30.262503
LEE,28.83,-81.82
LEF,-29.78,28.58
LEG,17.17,-13.95
LEH,49.533889,0.088056
LEI,36.843936,-2.370097
LEJ,51.432447,12.241633
LEK,11.326058,-12.28685
LEL,-12.22,136.3
LEM,45.92,-102.1
LEN,42.58,-5.651
LEO,-1.683,14.3
LEP,-21.5,-42.65
LEQ,50.1,-5.667
LER,-27.843333,120.703333
LES,-29.8,28.13
LET,-4.193549,-69.943163
LEU,42.338611,1.409167
LEV,-17.68,178.8
LEW,44.05,-70.28
LEX,38.0365,-84.605889
LEY,52.460278,5.527222
LEZ,14.2,-88.17
LFB,-15.03,40.67
LFI,37.082881,-76.360547
LFK,31.25,-94.75
LFM,27.37,53.2
LFN,36.1,-78.3
LFO,5.583,44.18
LFP,-14.92,144.3
LFR,8.239167,-72.271028
LFT,30.205278,-91.987611
LFW,6.165611,1.254511
LGA,40.777245,-73.872608
LGB,33.817722,-118.151611
LGC,33.02,-85.08
LGD,45.32,-118
LGE,-20.13,127.6
LGF,32.86,-114.4
LGG,50.637417,5.443222
LGH,-30.598333,138.425833
LGI,23.179014,-75.093597
LGK,6.329728,99.728667
LGL,3.417,115.2
LGM,-5.533,143.5
LGN,-5.683,149.4
LGO,53.75,7.483
LGP,13.157064,123.746247
LGQ,0.092439,-76.869314
LGR,-47.33,-72
LGS,-35.493597,-69.574267
LGT,4.583,-70.83
LGU,41.78,-111.9
LGW,51.148056,-0.190278
LGX,3.8,42.05
LGY,8.517,-71.4
LGZ,-0.1833,-74.75
LHA,48.36925,7.827722
LHB,54.23,-165.6
LHE,31.521564,74.403594
LHG,-29.456667,147.984444
LHI,-3.133,139.9
LHK,32.27,111.6
LHN,24.25,121.2
LHP,-6.417,155.7
LHR,51.4775,-0.461389
LHS,-46.533056,-68.951111
LHU,-18.1,23.39
LHV,41.13,-77.45
LHW,36.02,103.8
LIA,30.82,107.7
LIB,-17.33,129.8
LIC,39.27,-103.7
LID,52.166139,4.417944
LIE,3.633,18.63
LIF,-20.7748,167.239864
LIG,45.862778,1.179444
LIH,21.975983,-159.338958
LII,-3.167,136.2
LIJ,54.9,-132.8
LIK,9.817,169.3
LIL,50.561942,3.089444
LIM,-12.021889,-77.114319
LIN,45.445103,9.276739
LIO,9.957961,-83.022006
LIP,-21.664039,-49.730519
LIQ,2.170658,21.496906
LIR,10.593289,-85.544408
LIS,38.781311,-9.135919
LIT,34.729444,-92.224306
LIU,35.83,12.83
LIV,65.53,-148.5
LIW,19.691494,97.214825
LIX,-12.05,34.78
LIY,31.78,-81.64
LIZ,46.95,-67.89
LJA,-3.45,23.62
LJC,38.18,-85.73
LJG,26.68,100.3
LJN,29.03,-95.45
LJU,46.223686,14.457611
LKA,-8.35,123
LKB,-18.2,178.8
LKC,-2.317,14.6
LKD,26.760594,80.889339
LKE,47.5,-122.3
LKG,4.233,34.35
LKH,3.3,114.8
LKI,46.84,-92.19
LKK,58.97,-155.1
LKL,70.068814,24.973489
LKN,68.15,13.02
LKO,26.77,80.88
LKP,44.3,-73.98
LKR,11.15,48.2
LKS,29.83,-95.68
LKT,5.85,-5.683
LKU,3.417,35.88
LKV,42.17,-120.4
LKY,-3.376306,35.818278
LKZ,52.409333,0.561
LLA,65.543758,22.121989
LLB,25.45,108
LLE,-25.473603,31.565828
LLF,26.7,112
LLG,-17.13,144.5
LLH,15.45,-87.9
LLI,11.975014,38.979969
LLL,-16.5,128.7
LLM,3.767,114.4
LLN,-3.75,138.7
LLP,-23.02,138.7
LLS,-24.7,-60.6
LLU,60.5,-45.58
LLW,-13.97,33.7
LLX,44.5,-72.02
LLY,39.98,-74.78
LMA,63.88,-152.3
LMB,-13.75,34.57
LMC,3.317,-73.9
LMD,-40.83,-68.13
LME,47.948611,0.201667
LMG,-16.466749,179.33986
LMH,15.87,-85.55
LMI,-3.483,142
LML,8.917,166.3
LMM,25.685194,-109.080806
LMN,4.808303,115.010439
LMO,57.705214,-3.339169
LMP,35.497914,12.618083
LMQ,30.378139,19.576444
LMR,-28.360069,23.439069
LMS,33.15,-89.07
LMT,42.156144,-121.733208
LMX,3.05,-77.55
LMY,-6.85,141.4
LMZ,-10.77,40.48
LNA,26.59,-80.09
LNB,-16.58,168.2
LNC,-6.367,147.4
LND,42.8,-108.7
LNE,-19.02,170
LNF,-4.867,141.2
LNG,-8.167,146.1
LNH,-21,137.9
LNI,70.92,-153.3
LNJ,23.74,100
LNK,40.850971,-96.75925
LNM,-7.217,146.2
LNN,41.63,-81.42
LNO,-28.878056,121.314722
LNP,36.98,-82.57
LNQ,-10.43,150.2
LNR,43.18,-90.2
LNS,40.121717,-76.296097
LNV,-3.067,152.6
LNX,54.8,32.05
LNY,20.785611,-156.951419
LNZ,48.233219,14.187511
LOA,-19.08,140
LOB,-29.97,-71.53
LOC,-33.57,135.8
LOD,-15.37,168
LOE,17.439133,101.722064
LOF,7.8,168.3
LOG,46.12,-122.9
LOH,-3.995892,-79.371925
LOK,3.121967,35.608692
LOL,40.05,-118.6
LOM,21.35,-101.9
LON,51.5,-0.1667
LOO,33.764383,2.928344
LOQ,-25.2,25.67
LOR,31.35,-85.75
LOS,6.577369,3.321156
LOT,41.6,-88.05
LOU,38.228,-85.663722
LOV,26.955733,-101.470136
LOW,38.03,-82.62
LOX,14.79,-89.2
LOY,2.75,36.72
LOZ,37.082233,-84.084919
LPA,27.931886,-15.386586
LPB,-16.513339,-68.192256
LPC,34.67,-120.5
LPD,-1.3,-69.72
LPE,3.733,-76.22
LPG,-34.972222,-57.894694
LPH,56.05,-5.433
LPI,58.40615,15.680508
LPJ,7,-67.67
LPK,52.62,39.6
LPL,53.333611,-2.849722
LPM,-17.5,168.5
LPN,-6.717,147
LPO,41.6,-86.72
LPP,61.044553,28.144397
LPQ,19.897914,102.160764
LPS,48.48,-122.9
LPT,18.270933,99.504167
LPU,0.5833,115.6
LPW,56.38,-134.8
LPX,56.5175,21.096944
LPY,45.080689,3.762889
LQK,34.82,-82.7
LQM,-0.3,-74.58
LQN,34.95,63.67
LRA,39.650253,22.4655
LRB,-28.97,28
LRC,48.53,12.15
LRD,27.54375,-99.461556
LRE,-23.43,144.3
LRF,34.916944,-92.149722
LRG,30.37,68.62
LRH,46.179167,-1.195278
LRI,9.033,-75.7
LRJ,42.78,-96.15
LRK,67.98,-164.6
LRL,9.767333,1.09125
LRM,18.450711,-68.911833
LRN,47.21,-119.3
LRQ,56.25,-101.3
LRR,27.67,54.39
LRS,37.184903,26.800289
LRT,47.760555,-3.44
LRU,32.289417,-106.921972
LRV,11.83,-66.75
LSA,-8.5,151.1
LSB,32.42,-108.7
LSC,-29.916233,-71.199522
LSD,38.04,-84.61
LSE,43.878986,-91.256711
LSF,32.337322,-84.991283
LSH,22.977881,97.752183
LSI,59.878889,-1.295556
LSJ,-5.367,147
LSK,42.77,-104.5
LSL,11.035277,-84.706108
LSM,4.217,115.6
LSN,37.07,-120.9
LSO,46.48,-1.75
LSP,11.780775,-70.151497
LSQ,-37.401731,-72.425444
LSR,65.4,-167.2
LSS,15.87,-61.58
LST,-41.545278,147.214167
LSU,4.55,115.5
LSV,36.236197,-115.034253
LSW,5.226681,96.950342
LSX,5.05,97.32
LSY,-28.830278,153.26
LSZ,44.95,14.42
LTA,-23.824417,30.329306
LTB,-41.23,146.4
LTC,9.417,16.02
LTD,30.151695,9.715305
LTF,-2.833,141.6
LTG,1.283,103.9
LTH,36.67,-116.7
LTI,47.05,92.45
LTK,35.401094,35.948681
LTL,-0.8333,12.72
LTM,3.372761,-59.789439
LTN,51.874722,-0.368333
LTO,25.989194,-111.348361
LTP,-19.2,144.4
LTQ,50.517385,1.620587
LTR,54.95,-7.733
LTS,34.667067,-99.266681
LTT,43.205417,6.482
LTV,-17.08,141.4
LTW,38.28,-77.63
LTX,-0.9011,-78.6
LUA,27.7,86.73
LUB,2.4,-59.43
LUC,-16.75,179.4
LUD,-26.687369,15.242861
LUE,48.35,19.73
LUF,33.535,-112.38306
LUG,46.004275,8.910578
LUH,30.854681,75.952592
LUI,15.13,-86.58
LUJ,-31.37,29.58
LUK,39.103333,-84.418611
LUL,31.7,-89.13
LUM,24.48,98.52
LUN,-15.330817,28.452628
LUO,-11.768086,19.897672
LUP,21.18,-157
LUQ,-33.273192,-66.356422
LUR,68.875133,-166.110022
LUS,-4.833,18.73
LUT,-15.43,144.8
LUU,-15.67,144.2
LUV,-5.661619,132.731431
LUW,-1.038919,122.771906
LUX,49.626575,6.211517
LUY,-4.783,38.28
LUZ,29.63,116
LVA,48.031361,-0.742986
LVB,-30.85,-55.6
LVD,61.35,-155.5
LVI,-17.821756,25.822692
LVK,37.68,-121.8
LVL,36.75,-77.85
LVM,45.67,-110.6
LVO,-28.613611,122.423889
LVP,26.8103,53.356289
LVR,-13.04,-55.94
LVS,35.65,-105.2
LWA,10.3,123.9
LWB,37.78,-80.33
LWC,38.95,-95.28
LWE,-8.383,123.4
LWH,-18.63,138.6
LWI,-6.317,146.6
LWK,60.2,-1.117
LWL,41.12,-115
LWM,42.717208,-71.123428
LWN,40.72,43.83
LWO,49.8125,23.956111
LWR,53.228611,5.760556
LWS,46.38,-117
LWT,47.05,-109.5
LWV,38.77,-87.6
LWY,4.85,115.4
LXA,29.67,91.15
LXG,20.97,101.4
LXI,43.6,118
LXN,40.78,-99.75
LXR,25.671028,32.706583
LXS,39.917072,25.236308
LXU,-14.37,23.27
LXV,39.33,-106.5
LYA,34.68,112.5
LYB,19.67,-80.08
LYC,64.548322,18.716219
LYE,51.505144,-1.993428
LYG,34.55,119.3
LYH,37.326686,-79.200431
LYI,37.18,116.9
LYK,-8.95,117.2
LYN,45.727172,4.944275
LYO,38.2,-98.2
LYP,31.365014,72.994842
LYR,78.246111,15.465556
LYS,45.726387,5.090833
LYT,-24.12,152.7
LYU,47.9,-91.85
LYX,50.956111,0.939167
LZA,-7.183,22.35
LZC,18.001731,-102.220525
LZD,36.02,103.7
LZH,24.37,109.5
LZI,-4.95,14.13
LZM,-9.05,18.08
LZN,26.16,120
LZO,28.88,105.4
LZR,-14.666667,145.45
LZY,29.62,94.39
MAA,12.994414,80.180517
MAB,-5.368589,-49.138025
MAC,32.82,-83.56
MAD,40.493556,-3.566764
MAE,36.95,-120.1
MAF,31.942528,-102.201914
MAG,-5.207083,145.7887
MAH,39.862597,4.218647
MAI,-14.48,35.27
MAJ,7.064758,171.272022
MAK,9.558969,31.652242
MAL,-1.883,125.8
MAM,25.769894,-97.525311
MAN,53.353744,-2.27495
MAO,-3.038611,-60.049721
MAP,-10.3,149.5
MAQ,16.72,98.57
MAR,10.558208,-71.727856
MAS,-2.017,147
MAT,-5.8,13.43
MAU,-16.426486,-152.243669
MAV,8.75,171.1
MAW,36.6,-89.98
MAX,15.6,-13.32
MAY,24.287664,-77.684614
MAZ,18.255694,-67.148472
MBA,-4.034833,39.59425
MBB,-21.25,119.6
MBC,-1.9,11.88
MBD,-25.798444,25.548028
MBE,44.303914,143.404028
MBF,-35.28,149.1
MBG,45.53,-100.4
MBH,-25.513333,152.715
MBI,-8.917,33.47
MBJ,18.503717,-77.913358
MBK,-10.23,-54.95
MBL,44.27,-86.25
MBM,-31.28,29.97
MBN,-16.67,126
MBO,13.208092,120.60535
MBP,-5.967,-77.02
MBQ,-0.6167,30.65
MBR,16,-12.5
MBS,43.532913,-84.079647
MBT,12.37,123.1
MBU,-9.733,160.8
MBV,-6.35,147.6
MBW,-37.975833,145.102222
MBX,46.479861,15.686131
MBY,39.47,-92.43
MBZ,-3.417,-57.67
MCA,8.533,-9.467
MCB,31.15,-90.43
MCC,38.667639,-121.400611
MCD,45.87,-84.63
MCE,37.28,-120.5
MCF,27.849339,-82.521214
MCG,62.97,-155.6
MCH,-3.268903,-79.961572
MCI,39.297606,-94.713905
MCJ,11.389919,-72.23915
MCK,40.2,-100.6
MCL,63.73,-148.9
MCM,43.73,7.417
MCN,32.69285,-83.649211
MCO,28.429394,-81.308994
MCP,0.050664,-51.072178
MCQ,48.05,20.83
MCR,17.08,-89.15
MCS,-30.271922,-57.640231
MCT,23.593278,58.284444
MCU,46.352525,2.570486
MCV,-16.47,136.1
MCW,43.17,-93.33
MCX,42.816822,47.652294
MCY,-26.603333,153.091111
MCZ,-9.510808,-35.791678
MDA,29.42,-98.5
MDB,16.98,-88.32
MDC,1.549447,124.925878
MDD,32.04,-102.1
MDE,6.164536,-75.423119
MDF,45.15,-90.33
MDG,44.524072,129.568972
MDH,37.78,-89.25
MDI,7.703883,8.613939
MDJ,44.63,-121.1
MDK,0.0226,18.288744
MDL,21.702156,95.977928
MDM,-4.633,143.5
MDN,38.73,-85.37
MDO,59.45,-146.3
MDP,-5.883,140.7
MDQ,-37.934167,-57.573333
MDR,63.1,-154.7
MDS,21.78,-71.77
MDT,40.193494,-76.763403
MDU,-6.147739,143.657164
MDV,1.017,10.75
MDW,41.785972,-87.752417
MDX,-29.22,-58.08
MDY,28.201725,-177.380636
MDZ,-32.831717,-68.792856
MEA,-22.343031,-41.766033
MEB,-37.728056,144.901944
MEC,-0.946078,-80.678808
MED,24.553422,39.705061
MEE,-21.481678,168.037508
MEF,11.05,17.95
MEG,-9.525086,16.312406
MEH,71.03,27.83
MEI,32.331283,-88.753792
MEJ,41.62,-80.2
MEK,33.879067,-5.515125
MEL,-37.673333,144.843333
MEM,35.042417,-89.976667
MEN,44.502108,3.532819
MEO,35.9,-75.7
MEP,2.433,103.8
MEQ,4.15,96.13
MER,37.380481,-120.568189
MES,3.558056,98.671722
MET,-12.75,142.8
MEU,-0.8833,-52.6
MEV,39,-119.8
MEW,-4.85,21.55
MEX,19.436303,-99.072097
MEY,27.57,84.22
MEZ,-25.704458,26.908978
MFA,-7.9,39.67
MFB,0.6333,-69.75
MFC,-29.8,27.25
MFD,40.821417,-82.516639
MFE,26.175833,-98.238611
MFF,-1.533,13.27
MFG,34.339022,73.508639
MFH,36.83,-114.1
MFI,44.63,-90.18
MFJ,-18.6,179.9
MFK,26.22,120
MFL,-19.67,144.9
MFM,22.149556,113.591558
MFN,-44.62,167.9
MFO,-5.567,151.8
MFP,-22.1,138
MFQ,13.502531,7.126753
MFR,42.374228,-122.8735
MFS,1.033,-72.13
MFT,-13.12,-72.57
MFU,-13.258878,31.936581
MFV,41.5,13.58
MFW,-11.35,40.35
MFX,45.68,6.383
MFY,14.3,47.6
MFZ,-6.133,149.1
MGA,12.141494,-86.168178
MGB,-37.745556,140.785278
MGC,41.7,-86.82
MGD,-13.03,-64.42
MGE,33.915382,-84.516319
MGF,-23.476392,-52.016406
MGG,-6.033,143.4
MGH,-30.857408,30.343019
MGI,28.12,-96.8
MGJ,41.52,-74.27
MGK,1.283,104
MGL,51.230356,6.504494
MGM,32.300639,-86.393972
MGN,9.284739,-74.846092
MGO,-1.733,10.22
MGP,-4.15,153
MGQ,2.017,45.32
MGR,31.08,-83.8
MGS,-21.92,-157.9
MGT,-12.094444,134.893611
MGU,1.283,104
MGV,-18.62,126.9
MGW,39.642908,-79.916314
MGX,-2.25,11
MGY,39.58,-84.22
MGZ,12.439797,98.621478
MHA,5.25,-59.15
MHB,-36.97,174.9
MHC,-32.03,137.6
MHD,36.235195,59.640972
MHE,43.77,-98.03
MHF,1.75,-69.92
MHG,49.472706,8.514264
MHH,26.511406,-77.083472
MHI,11.33,43.02
MHJ,8.133,45.28
MHK,39.140972,-96.670833
MHL,61.87,-162.1
MHM,63.88,-152.3
MHN,42.05,-101.1
MHO,-17.17,125.7
MHP,53.864472,27.539683
MHQ,60.122203,19.898156
MHR,38.52,-121.5
MHS,41.32,-122.3
MHT,42.932556,-71.435667
MHU,-37.17,146.2
MHV,35.48,-118.2
MHW,-19.83,-63.97
MHX,-10.37,-161
MHY,-9,141.4
MHZ,52.361933,0.486406
MIA,25.79325,-80.290556
MIB,48.415572,-101.357661
MIC,45.06,-93.35
MID,20.936981,-89.657672
MIE,40.242348,-85.395861
MIF,31.6,-102.9
MIG,31.43,104.7
MIH,-14.78,125.8
MII,-22.196892,-49.9264
MIJ,6.083,171.8
MIK,61.6866,27.201794
MIL,45.63,8.733
MIM,-36.908611,149.901389
MIN,-32.83,135.1
MIO,33.4,-110.9
MIP,30.6,34.8
MIQ,41.18,-96.08
MIR,35.758056,10.754722
MIS,-10.5,152.8
MIT,35.5,-119.3
MIU,11.855347,13.08095
MIV,39.367806,-75.072222
MIW,42.12,-92.92
MIX,-1.133,-70.25
MIY,-23.7,133.9
MIZ,-14.3,134.1
MJA,-21.42,44.32
MJB,10.28,170.9
MJC,7.272069,-7.587364
MJD,27.335156,68.143053
MJE,7.833,168.2
MJF,65.783997,13.214914
MJG,22.23,-79.07
MJH,25.93,45.37
MJI,32.894085,13.276
MJJ,-5.7,145.3
MJK,-25.88,113.6
MJL,-1.845142,11.056656
MJM,-6.121236,23.569008
MJN,-15.667144,46.351828
MJO,-21.02,16.47
MJP,-34.23,116.2
MJQ,43.62,-95.02
MJR,-38.27,-57.85
MJS,-15,39.5
MJT,39.056667,26.598333
MJU,-2.683,118.9
MJV,37.774972,-0.812389
MJW,-21.23,32.33
MJX,39.97,-74.2
MJY,-2.733,103.6
MJZ,62.534689,114.038928
MKA,49.98,12.72
MKB,0.9667,13.95
MKC,39.12325,-94.59275
MKD,11.03,36.47
MKE,42.947222,-87.896583
MKF,32.52,-84.94
MKG,43.169489,-86.238222
MKH,-29.37,29.03
MKI,5.317,25.95
MKJ,-0.03333,15.62
MKK,21.152886,-157.096256
MKL,35.599889,-88.915611
MKM,2.9,112.1
MKN,-4.017,153.7
MKO,35.67,-95.37
MKP,-16.583919,-143.658369
MKQ,-8.520294,140.418453
MKR,-26.611667,118.547778
MKS,11.68,38.15
MKT,44.15,-93.98
MKU,0.579211,12.890908
MKV,-25.97,133.2
MKW,-0.891833,134.049183
MKX,14.53,49.13
MKY,-21.171667,149.179722
MKZ,2.263361,102.251553
MLA,35.857497,14.4775
MLB,28.102753,-80.645258
MLC,34.882403,-95.783463
MLD,42.33,-112.3
MLE,4.191833,73.529128
MLF,38.43,-113
MLG,-7.983,112.6
MLH,47.589583,7.529914
MLI,41.448528,-90.507539
MLJ,33.15,-83.25
MLK,48.35,-107.9
MLL,61.88,-162.1
MLM,19.849944,-101.0255
MLN,35.279817,-2.956256
MLO,36.72,24.53
MLP,7.633,124.1
MLQ,-8.1,146.2
MLR,-37.63,140.6
MLS,46.43,-105.9
MLT,45.65,-68.7
MLU,32.510864,-92.037689
MLV,-13.07,142.5
MLW,6.289061,-10.758722
MLX,38.435347,38.091006
MLY,65,-150.6
MLZ,-32.33,-54.2
MMA,55.6,13.07
MMB,43.880606,144.164053
MMC,22.75,-99
MMD,25.846533,131.263494
MME,54.509189,-1.429406
MMF,5.717,9.3
MMG,-28.116111,117.841667
MMH,37.62,-118.9
MMI,35.45,-84.6
MMJ,36.166758,137.922669
MMK,68.781672,32.750822
MML,44.43,-95.82
MMM,-22.8025,148.704722
MMN,42.43,-71.5
MMO,15.155928,-23.213703
MMP,9.258719,-74.437967
MMQ,-8.867,31.33
MMR,30.19,-97.67
MMS,33.42,-91.08
MMT,33.94,-81.12
MMU,40.79935,-74.414875
MMV,45.194444,-123.135944
MMW,-16.75,39.22
MMX,55.530193,13.371639
MMY,24.782833,125.295111
MMZ,35.930789,64.760917
MNA,-1.383,122.6
MNB,-5.933,12.35
MNC,-14.488233,40.71225
MND,4.517,-73.28
MNE,-28.02,138.7
MNF,-17.65,177.1
MNG,-12.056111,134.234167
MNH,7.75,83
MNI,16.7,-62.2
MNJ,-21.201772,48.358317
MNK,0.03333,173
MNL,14.508647,121.019581
MNM,45.28,-87.63
MNN,40.62,-83.07
MNO,-7.283,27.4
MNP,-9.5,147.1
MNQ,-24.885833,151.100278
MNR,-15.254542,23.162306
MNS,-11.1,28.85
MNT,64.9,-149.2
MNU,16.43,97.67
MNV,-14.12,133.8
MNW,-22.5,135.2
MNX,-5.817,-61.28
MNY,-7.35,155.5
MNZ,38.72,-77.52
MOA,20.654114,-74.922114
MOB,30.691231,-88.242814
MOC,-16.706925,-43.8189
MOD,37.625817,-120.954422
MOE,23.092525,96.645272
MOF,-8.633,122.3
MOG,20.516758,99.256825
MOH,27.483853,95.016922
MOI,-19.82,-157.7
MOJ,5.617,-54.4
MOK,8.067,-6.2
MOL,62.744722,7.2625
MOM,17.75,-12.5
MON,-43.764999,170.133333
MOO,-28.099444,140.196944
MOP,43.62,-84.73
MOQ,-20.28475,44.317614
MOR,-34.676317,-58.642756
MOS,64.7,-162.1
MOT,48.259378,-101.280333
MOU,62.08,-163.7
MOV,-22.057778,148.0775
MOW,55.75,37.7
MOX,41.37,-88.43
MOY,4.917,-72.85
MOZ,-17.489972,-149.761869
MPA,-17.634428,24.176658
MPB,25.77,-80.17
MPC,-2.55,101.1
MPD,25.53,69.02
MPE,41.28,-72.6
MPF,-6.533,147.7
MPG,-6.533,147.7
MPH,8.417,125.1
MPI,9.183,-77.98
MPK,34.758906,126.379872
MPL,43.576194,3.963014
MPM,-25.920836,32.572606
MPN,-51.822777,-58.447222
MPO,41.13,-75.37
MPP,8.933,-77.77
MPQ,30.17,35.8
MPR,38.35,-97.68
MPS,33.15,-94.97
MPT,-8.167,125
MPU,-2.917,151.4
MPV,44.2,-72.57
MPW,47.1,37.55
MPX,-4.9,141.6
MPY,3.717,-54.07
MPZ,40.97,-91.55
MQA,-19.83,120.8
MQB,40.45,-90.62
MQC,47.13,-56.38
MQD,-41.25,-68.73
MQE,-22.82,137.4
MQF,53.393131,58.755661
MQG,-22.08,17.37
MQH,-13.549103,-48.195347
MQI,42.25,-71
MQJ,39.62,27.92
MQK,-16.33,-58.39
MQL,-34.229167,142.085556
MQM,40.62,37.22
MQN,66.32,14
MQO,-8.704,142.7
MQP,-25.39,31.1
MQQ,8.624406,16.071419
MQR,2.667,-78.33
MQS,12.887947,-61.180161
MQT,46.53,-87.57
MQU,5.212556,-74.883647
MQV,35.9,0.9833
MQW,34.78,-84.97
MQX,13.467367,39.533464
MQY,36.008981,-86.520078
MQZ,-18.62,126.9
MRA,32.33,15.07
MRB,39.401932,-77.984581
MRC,35.62,-87.03
MRD,8.582294,-71.161186
MRE,-1.183,35.1
MRF,30.23,-103.9
MRG,-17.069167,145.419167
MRH,-9.5,147.1
MRI,61.213544,-149.844447
MRJ,14.13,-88.03
MRK,25.93,-81.72
MRL,-20.07,145.6
MRM,-9.2,147.6
MRN,35.75,-81.72
MRO,-40.973333,175.633611
MRP,-27.03,133.1
MRQ,13.360967,121.825583
MRR,-4.383,-79.93
MRS,43.435555,5.213611
MRT,-14.82,133.7
MRU,-20.430235,57.6836
MRV,44.225072,43.081889
MRW,54.699344,11.440117
MRX,30.556192,49.151879
MRY,36.587,-121.842944
MRZ,-29.498889,149.844722
MSA,53.83,-92
MSB,18.07,-63.1
MSC,33.45,-111.7
MSD,39.52,-111.5
MSE,51.342222,1.346111
MSF,-22.67,134.9
MSG,-29.73,28.75
MSH,20.675434,58.890467
MSI,-5.5,114.4
MSJ,40.703222,141.368364
MSK,25.08,-77.35
MSL,34.745319,-87.610233
MSM,-4.833,17.85
MSN,43.139858,-89.337514
MSO,46.916306,-114.090556
MSP,44.881956,-93.221767
MSQ,53.882469,28.030731
MSR,38.747769,41.661236
MSS,44.935833,-74.845547
MST,50.911658,5.770144
